grdc_id,river,station,country,lat_org,lon_org,area,altitude,ds_stat_no,w_level,d_start,d_end,d_yrs,d_miss,m_start,m_end,m_yrs,m_miss,lta_discharge,combi_relerr,dist,dist_relerr,lat,lon,upa_local_max,upa_relerr,uparea,cmf_row,cmf_col,cmf_lon,cmf_lat
1104150,CHELIF,SIDI BELATAR,DZ,36.02,0.27,43750,2,0,0,1978,2001,24,58.35,1976,1977,2,0,17.418,0.008047024,0,0,36.02,0.27,44373.48047,0.024141071,44278.08594,215,720,0.125,36.125
1104200,MINA,OUED EL-ABTAL,DZ,35.5,0.68,6635,205,1104150,0,,,,,1976,1978,3,0,2.583,0.15483779,556.5974504,0.055659745,35.5,0.675,6088.479004,0.353193879,5463.279297,218,722,0.625,35.375
1104300,RHIOU,AMMI MOUSSA,DZ,35.87,1.12,2398,140,1104150,0,,,,,1976,1979,4,0,3.229,0.137546261,0,0,35.87,1.12,2301.188232,0.412638783,1903.246094,216,724,1.125,35.875
1104450,MAZAFRAN,FER A CHEVAL,DZ,36.67,2.82,1912,10,0,0,1979,1995,17,0.03,1976,1978,3,0,3.723,0.062254938,556.5974504,0.055659745,36.67,2.815,1992.299438,0.075445324,1984.125732,213,731,2.875,36.625
1104480,BOUDOUAOU,KEDDARA,DZ,36.65,3.42,829,60,1104500,0,,,,,1976,1979,4,0,0.361,0.742012741,2359.350351,0.235935035,36.665,3.405,166.2266541,1.754168153,101.8972549,212,733,3.375,36.875
1104500,ISSER,LAKHDARIA,DZ,36.62,3.58,4149,90,0,0,,,,,1976,1979,4,0,6.472,0.08762603,0,0,36.62,3.58,3726.805176,0.26287809,3603.659424,212,734,3.625,36.875
1104530,SEBAOU,BAGHLIA,DZ,36.8,3.87,2501,20,0,0,,,,,1976,1979,4,0,17.792,0.072970916,555.3282736,0.055532827,36.805,3.87,2492.957764,0.107847095,2366.137207,212,735,3.875,36.875
1104600,BOUSELAM,SIDI YAHIA,DZ,36.42,4.6,4309,220,0,0,1988,1997,10,0,1976,1978,3,0,4.69,0.041860854,0,0,36.42,4.6,8165.195313,0.125582561,4038.432373,214,738,4.625,36.375
1104700,RHUMEL,OUED ATHMANIA,DZ,36.23,6.3,1220,710,0,0,,,,,1976,1978,3,0,0.083,0.11672746,1750.559699,0.17505597,36.245,6.295,2119.200439,7.04E-05,1220.042969,215,745,6.375,36.125
1104800,MELAH,BOUCHEGOUF,DZ,36.45,7.72,552,95,0,0,1978,2003,26,8.02,1976,1977,2,0,2.88,0.03761962,556.5974504,0.055659745,36.45,7.715,5521.124023,0.001539369,551.5751343,213,750,7.625,36.625
1107700,TAFNA,PIERRE DU CHAT,DZ,35.15,-1.45,7245,60,0,0,1979,2001,23,1.85,1976,1979,4,16.67,2.836,0.032064634,0,0,35.15,-1.45,7182.689453,0.096193902,6896.537598,218,714,-1.375,35.375
1107800,ISSER (TRIB. TAFNA),BENSEKRANE,DZ,35.07,-1.22,1118,287,1107800,0,1979,1999,21,0.04,1976,1978,3,0,0.693,0.147492588,1112.94256,0.111294256,35.08,-1.22,1379.603271,0.219889253,1240.918091,219,715,-1.125,35.125
1112100,SENEGAL,KAYES,ML,14.45,-11.28,157400,20,1812500,0,1981,1990,10,70.02,1951,1990,40,0,475.385,0.288330664,779.5853932,0.077958539,14.445,-11.275,102336.3984,0.709074914,101595.8047,302,673,-11.625,14.375
1112110,KOLIMBINE,KABATE,ML,14.31,-11.13,25000,-999,1112100,0,1981,1990,10,70.87,1981,1990,10,70.83,5.711,0.910536553,3677.62068,0.367762068,14.34,-11.145,385.4423828,1.996085525,48.93087006,302,673,-11.625,14.375
1112200,FALEME,GOURBASSY,ML,13.23,-11.38,15000,-999,1812600,0,1981,1990,10,71.69,1954,1990,37,0,114.66,0.995926032,4958.871144,0.495887114,13.25,-11.42,213.6303406,1.996003866,29.97104454,306,673,-11.625,13.375
1112300,SENEGAL,GALOUGO,ML,13.83,-11.13,127000,69,1112100,0,1981,1990,10,70.02,1905,1990,86,35.02,503.302,0.621618536,7943.296236,0.794329624,13.86,-11.065,144553.1094,0.276196361,144538.4688,304,675,-11.125,13.875
1112320,BAKOYE,OUALIA,ML,13.36,-9.23,84400,-999,1112300,0,1981,1990,10,70.02,1951,1990,40,29.2,129.406,1.132380008,7421.070917,0.742107092,13.345,-9.295,3805.444824,1.912925839,3674.53418,306,682,-9.375,13.375
1112330,BAOULE (TRIB. ATUI; SENEGAL),SIRAMAKANA,ML,13.34,-9.53,58000,-999,1112320,0,1981,1990,10,73.36,1972,1990,19,60.96,14.309,0.83179395,2482.332673,0.248233267,13.33,-9.55,62.310215,1.998915315,31.45879173,306,680,-9.875,13.375
1112340,BAKOYE,TOUKOTO,ML,13.45,-9.88,16000,-999,1112320,0,1987,1990,4,50.03,1952,1990,39,41.59,69.465,0.102763404,1240.91639,0.124091639,13.445,-9.89,16627.87305,0.060106933,16480.85547,306,680,-9.875,13.375
1112350,BAFING (TRIB. ATUI; SENEGAL),DIBIA,ML,13.14,-10.48,33000,-999,1112300,0,1981,1990,10,81.68,1951,1990,40,20.38,320.948,0.559674537,6935.051773,0.693505177,13.2,-10.46,28237.83203,0.292013258,28181.78125,307,677,-10.625,13.125
1112400,FALEME,FADOUGOU,ML,12.31,-11.23,9300,-999,1112200,0,1981,1990,10,70.02,1952,1990,39,6.05,85.854,1.061904468,6337.89059,0.633789059,12.325,-11.175,475.7119446,1.918135285,380.6711731,309,675,-11.125,12.625
1112480,BAFING (TRIB. ATUI; SENEGAL),DAKA SAYDOU,ML,12.15,-10.2,15500,-999,1112500,0,1981,1990,10,71.71,1952,1990,39,27.37,256.922,0.899941194,4915.638389,0.491563839,12.19,-10.18,2353.284912,1.716695905,2195.606445,311,679,-10.125,12.125
1112500,BAFING (TRIB. ATUI; SENEGAL),BAFING MAKANA,ML,12.33,-10.16,21700,-999,1112350,0,1981,1990,10,70.18,1981,1990,10,70,165.212,1.106671548,6638.322712,0.663832271,12.385,-10.135,120.0261307,1.992350101,83.00198364,310,679,-10.125,12.375
1134020,SANKARANI,GUELELINKORO,ML,11.15,-8.55,23300,-999,1134050,0,1971,1979,9,2.3,1971,1979,9,1.94,263.361,0.06194537,782.7833599,0.078278336,11.155,-8.555,23767.02734,0.029279439,23641.10547,315,686,-8.375,11.125
1134030,NIGER,BANANKORO,ML,11.6833,-8.6667,71750,329,1134100,0,1967,2001,35,20.68,1967,1992,26,48.36,805.335,0.026017175,266.1069221,0.026610692,11.685,-8.665,71341.75781,0.02483014,70859.21875,312,685,-8.625,11.875
1134040,SANKARANI,GOUALA,ML,11.97,-8.23,35300,-999,1134100,0,1954,1990,37,54.12,1954,1990,37,38.1,289.053,0.078760543,550.8652839,0.055086528,11.965,-8.23,33301.88672,0.126108572,33074.18359,312,687,-8.125,11.875
1134050,SANKARANI,SELINGUE,ML,11.58,-8.17,34200,-999,1134040,0,1964,1992,29,36.9,1964,2012,49,45.83,281.415,0.197665041,2293.54323,0.229354323,11.585,-8.19,31987.83008,0.134286478,31903.70117,313,687,-8.125,11.625
1134060,OUASSOULOU,YANFOLILA,ML,11.13,-8.2,4100,-999,1134050,0,1971,1979,9,53.93,1971,1979,9,51.92,23.263,0.059268306,783.1366307,0.078313663,11.135,-8.195,4567.148438,0.021177592,4143.414063,315,687,-8.125,11.125
1134080,BAOULE (TRIB. NIGER),MADINA DIASSA,ML,10.8,-7.67,7900,-999,1134110,0,1971,1992,22,50.19,1971,1992,22,50.39,42.275,0.080012169,551.6176943,0.055161769,10.795,-7.67,8495.821289,0.129712969,8412.366211,316,689,-7.625,10.875
1134100,NIGER,KOULIKORO,ML,12.8667,-7.55,120000,290,1134100,0,1907,2006,100,0.83,1907,2012,106,16.43,1357.138,0.023331312,187.6024864,0.018760249,12.865,-7.55,118205.5625,0.032473437,118051.5938,308,689,-7.625,12.875
1134110,BAOULE (TRIB. NIGER),BOUGOUNI,ML,11.4,-7.45,15700,-999,1134200,0,1956,1992,37,30.47,1956,2012,57,51.57,98.588,0.033008476,0,0,11.4,-7.45,15043.37109,0.099025428,14922.65039,314,690,-7.375,11.375
1134150,BANIFING,KOLONDIEBA,ML,11.07,-6.85,3050,-999,1134310,0,1972,1992,21,60.23,1972,1992,21,58.73,7.614,0.008525871,0,0,11.07,-6.85,3842.756592,0.025577612,3089.005859,315,692,-6.875,11.125
1134200,BAOULE (TRIB. NIGER),DIOILA,ML,12.52,-6.8,32500,-999,1134300,0,1953,1992,40,31.5,1953,1990,38,8.2,133.773,0.051234534,552.6820701,0.055268207,12.525,-6.8,32007.74609,0.043167189,31798.5332,309,692,-6.875,12.625
1134220,BAGOE,PANKOUROU,ML,11.42,-6.57,31800,-999,1134300,0,1956,1992,37,31.63,1956,1992,37,3.19,168.347,0.017184101,0,0,11.42,-6.57,32033.42773,0.051552303,30980.31836,314,693,-6.625,11.375
1134250,NIGER,KIRANGO AVAL,ML,13.7167,-6.05,137000,274,1134400,0,1925,2001,77,34.24,1925,2012,88,34.83,1322.595,0.066491035,665.7699434,0.066576994,13.72,-6.055,132647.6719,0.066319115,132457.1406,305,695,-6.125,13.625
1134300,BANI,DOUNA,ML,13.2167,-5.9,101600,270,1134450,0,1922,2001,80,24.85,1922,2007,86,35.19,454.638,0.014534133,188.2406782,0.018824068,13.215,-5.9,101416.5234,0.005954263,101297.5234,307,696,-5.875,13.125
1134310,BANIFING,KOUORO 2,ML,12.02,-6.68,14300,-999,1134300,0,1975,1990,16,61.87,1975,1990,16,61.83,15.555,0.794295162,2002.667939,0.200266794,12.03,-6.665,236.6247559,1.982351899,126.1836777,311,693,-6.625,12.125
1134350,LOTIO,KLELA,ML,11.68,-5.58,3685,-999,1134300,0,1976,1979,4,33.25,1976,1979,4,31.71,11.713,0.038608221,556.5974504,0.055659745,11.68,-5.575,4158.089844,0.004505173,3676.699219,313,697,-5.625,11.625
1134400,NIGER,KE-MACINA,ML,13.95,-5.37,141000,-999,1134460,0,1953,1992,40,32.5,1953,1992,40,33.13,1335.2,0.088945364,785.4238136,0.078542381,13.955,-5.365,133376.375,0.109751329,133262.5313,304,699,-5.125,13.875
1134450,BANI,BENENY-KEGNY,ML,13.38,-4.92,116000,-999,1134480,0,1951,1992,42,44.8,1951,2012,62,60.33,501.985,0.057578611,554.5466187,0.055454662,13.385,-4.92,119426.1641,0.061826508,112414.0625,305,700,-4.875,13.625
1134460,NIGER,TILEMBEYA,ML,14.15,-4.98,143300,-999,1134500,0,1922,1992,71,53.38,1922,1992,71,53.31,873.981,0.042925681,0,0,14.15,-4.98,134185.6875,0.128777042,134073.125,303,700,-4.875,14.125
1134480,BANI,SOFARA,ML,14.02,-4.25,129000,-999,1134505,0,1952,1992,41,26.27,1952,1994,43,24.31,355.566,0.051669481,556.5974504,0.055659745,14.02,-4.245,126385.7656,0.043688953,126182.0625,303,703,-4.125,14.125
1134500,NIGER,NANTAKA (MOPTI),ML,14.53,-4.22,281600,260,1134630,0,1922,2001,80,28.61,1922,2012,91,47.04,1057.26,0.128358509,1669.792361,0.166979236,14.53,-4.205,274541,0.051117055,274402.7188,301,703,-4.125,14.625
1134700,NIGER,DIRE,ML,16.2667,-3.3833,340000,256,1134730,0,1924,2003,80,6.97,1924,2012,89,18.57,995.292,0.058416844,267.3969518,0.026739695,16.265,-3.385,360851.25,0.121771142,360701.0938,294,706,-3.375,16.375
1134730,NIGER,KORYOUME,ML,16.6666,-3.0333,342000,256,1134850,0,1963,2001,39,24.16,1963,1992,30,62.32,687.711,0.119594439,757.6921506,0.075769215,16.66,-3.035,377615.3438,0.207244888,377438.875,293,707,-3.125,16.625
1134850,NIGER,TOSSAYE,ML,16.93,-0.58,348000,-999,1134900,0,1954,1992,39,33.26,1954,1992,39,32.61,1077.583,0.233772604,1574.254304,0.15742543,16.94,-0.59,422591.4375,0.38646695,415245.25,292,717,-0.625,16.875
1134900,NIGER,ANSONGO,ML,15.6667,0.5,566000,242,1234090,0,1950,2001,52,24.01,1951,2012,62,36.24,906.393,0.083816941,587.8868776,0.058788688,15.665,0.495,528214.875,0.133873448,528113.8125,297,722,0.625,15.625
1147010,CONGO,KINSHASA,CD,-4.3,15.3,3475000,-999,0,0,1903,2010,108,0.04,1903,1983,81,0,39849.457,0.141261713,1704.091893,0.170409189,-4.285,15.295,3625459.5,0.08296676,3619154.75,377,781,15.375,-4.375
1147011,CONGO,PONTHIERVILLE,CD,-0.35,25.45,948500,413.62,1147013,0,1932,1959,28,63.53,,,,,6705.955,0.035242879,502.5855883,0.050258559,-0.355,25.45,946228.25,0.005211518,946028.4375,361,822,25.625,-0.375
1147012,CONGO,KINDU,CD,-2.95,25.9167,810440,419.86,1147011,0,1933,1959,27,62.29,,,,,2261.803,0.080602627,1050.852182,0.105085218,-2.955,25.925,797746.875,0.031637445,797619.875,371,823,25.875,-2.875
1147013,CONGO,KINSHASA-EAST (LEOPOLDVILLE-EST),CD,-4.1367,15.3333,3747320,272.12,1147010,0,1932,1959,28,63.4,,,,,38932.809,0.814747686,2223.51722,0.222351722,-4.145,15.315,914.8731689,1.999539614,862.3870239,376,781,15.375,-4.125
1147200,KASAI (TRIB. CONGO),KUTU-MOKE,CD,-3.1833,17.3833,737640,302.72,1147013,0,1932,1959,28,63.73,,,,,8346.188,0.239264462,3492.179365,0.349217937,-3.215,17.375,744959.1875,0.019357512,744779.4375,372,789,17.375,-3.125
1147201,KASAI (TRIB. CONGO),PORT-FRANCQUI,CD,-4.3333,20.5833,232560,365.02,1147200,0,1932,1959,28,64,,,,,2106.543,0.125027742,1529.850752,0.152985075,-4.345,20.575,245265.75,0.069113076,240596.4688,377,802,20.625,-4.375
1159100,ORANGE,VIOOLSDRIF (27811003),ZA,-28.7578,17.7214,866486,152,0,0,1935,2015,81,2.84,1935,2001,67,1.64,259.432,0.085187051,335.3223011,0.03353223,-28.755,17.72,785881.625,0.188496694,784821.125,475,790,17.625,-28.875
1159110,VISRIVIER (ZA),HARDEHEUWEL (27814003),ZA,-31.8067,20.3578,1502,1077,1159130,0,1927,2014,88,0.31,,,,,0.577,0.024657174,358.6542871,0.035865429,-31.805,20.355,2214.998535,0.002240665,1500.317261,487,801,20.375,-31.875
1159120,RENOSTERRIVIER,BONEKRAAL (27814011),ZA,-31.8153,20.5781,1679,1140,1159130,0,1958,2014,57,13.04,,,,,0.207,0.014861058,213.8053067,0.021380531,-31.815,20.58,1964.138916,0.001822112,1680.529663,487,802,20.625,-31.875
1159130,SAK,HOL PADS LEEGTE (27814016),ZA,-30.4744,20.5192,40073,919,1159100,0,1973,2014,42,0.69,,,,,2.123,0.141217727,1581.974117,0.158197412,-30.475,20.505,38154.24219,0.107258357,37923.91797,481,802,20.625,-30.375
1159131,SAK,WINDHOEK (27814013),ZA,-31.3661,21.3222,13116,1093,1159130,0,1958,1998,41,7.41,,,,,1.047,0.018758734,270.1657257,0.027016573,-31.365,21.32,14253.75684,0.002243056,13130.70996,485,805,21.375,-31.375
1159132,SAK,TABAKS FONTEIN (27814019),ZA,-31.6522,21.7683,5852,1197,1159131,0,1975,1992,18,6.87,,,,,9.615,0.023470312,295.8731362,0.029587314,-31.65,21.77,6285.789551,0.011236309,5884.877441,486,807,21.875,-31.625
1159300,ORANGE,UPINGTON,ZA,-28.4578,21.2392,364560,-999,1159100,0,1936,2015,80,2.08,1942,2001,60,0.99,205.002,0.087743913,684.8154212,0.068481542,-28.46,21.245,342699.3438,0.126268655,341543.75,473,804,21.125,-28.375
1159301,ORANGE,PRIESKA (27815102),ZA,-29.6517,22.7458,339310,947,1159300,0,1959,2015,57,8.05,,,,,161.631,0.060697004,350.2953036,0.03502953,-29.655,22.745,320419.9375,0.112031952,320303.2188,478,810,22.625,-29.625
1159302,ORANGE,MARKSDRIFT (27815208),ZA,-29.1619,23.6958,99316,997,1159301,0,1962,2015,54,4.46,,,,,138.344,0.029111134,213.1695382,0.021316954,-29.16,23.695,282713.1563,0.044699494,97096.3125,476,814,23.625,-29.125
1159303,ORANGE,VLUYTJESKRAAL (27815205),ZA,-29.8147,24.4375,92346,1095,1159302,0,1922,1989,68,7.45,,,,,38.656,0.024337217,279.9545745,0.027995457,-29.815,24.44,92468.625,0.017020736,91560.10156,479,817,24.375,-29.875
1159310,RENOSTERSPRUIT,SHANNON VALLEY (27817207),ZA,-29.1442,26.3181,348,1350,1159301,0,1923,2014,92,4.88,,,,,0.213,0.043373644,354.2026882,0.035420269,-29.145,26.315,572.371582,0.059280396,337.6852112,475,825,26.375,-28.875
1159320,RIET,KROMDRAAI (27817212),ZA,-29.6581,25.9728,2381,1319,1159301,0,1936,2014,79,6.01,,,,,0.714,0.032927822,395.2500689,0.039525007,-29.655,25.975,2738.820068,0.019733453,2357.507324,478,823,25.875,-29.625
1159321,RIET,RIVIERA (27817208),ZA,-29.8125,26.2117,596,1392,1159320,0,1931,1986,56,9.48,,,,,0.37,0.031658487,313.2959507,0.031329595,-29.81,26.21,1293.521729,0.032316271,586.369751,479,824,26.125,-29.875
1159325,OSPOORTSPRUIT,OS POORT (27817209),ZA,-29.9025,26.2144,191,1417,1159320,0,1931,1986,56,1.62,,,,,0.018,0.044412062,549.7723435,0.054977234,-29.905,26.21,586.369751,0.023281716,193.2234039,479,824,26.125,-29.875
1159400,HARTS,TAUNG (27817303),ZA,-27.5733,24.7458,11044,1091,1159301,0,1923,2015,93,1.57,,,,,1.202,0.030564676,345.3041859,0.034530419,-27.57,24.745,22291.65625,0.022633189,11168.98047,470,818,24.625,-27.625
1159410,VETRIVIER,FLOORSDRIFT (27817502),ZA,-27.8403,25.9044,17754,1237,1159500,0,1935,1972,38,2.42,,,,,10.43,0.058441415,475.347216,0.047534722,-27.845,25.905,17152.32031,0.080254801,17041.57813,471,823,25.875,-27.875
1159500,VAAL,DE HOOP 65,ZA,-28.4989,24.6031,120982,-999,1159300,0,1909,2001,93,1.71,1909,1986,78,30.74,1.228,0.051033573,362.6059574,0.036260596,-28.5,24.6,116625.5703,0.080579527,116107.6641,474,818,24.625,-28.625
1159510,VAAL,GROOTDRAAI (27817602),ZA,-27.3983,26.6131,7801,1259,1159500,0,1950,2015,66,21.12,,,,,0.533,0.019578865,270.852488,0.027085249,-27.4,26.615,80109.84375,0.004566096,7783.189941,469,826,26.625,-27.375
1159511,VAAL,MOOIFONTEIN (27817603),ZA,-27.3997,26.6256,7794,1259,1159510,0,1967,2010,44,1.28,,,,,3.741,0.03298423,472.4643905,0.047246439,-27.395,26.625,7885.861816,0.004459811,7776.620117,469,826,26.625,-27.375
1159512,VAAL,KLIPFONTEIN (27817604),ZA,-27.9356,27.9964,863,1530,1159511,0,1964,1988,25,6.54,,,,,0.231,0.018558547,166.6329459,0.016663295,-27.935,27.995,1087.682617,0.022349052,853.3563843,471,831,27.875,-27.875
1159520,HEUNINGSPRUIT,DANKBAAR (27817703),ZA,-27.3558,27.2856,905,1357,1159500,0,1947,2014,68,1.02,,,,,0.461,0.012294285,103.5632598,0.010356326,-27.355,27.285,1042.381836,0.016170202,912.3170166,468,827,26.875,-27.125
1159530,LEEWDORINGSPRUIT,KLIPSPRUIT (27817465),ZA,-27.37,26.3506,867,1249,1159500,0,1970,2008,39,0.54,,,,,0.164,0.023227908,66.79169695,0.00667917,-27.37,26.35,81655.58594,0.056325383,891.4170532,469,824,26.125,-27.375
1159540,SANDSPRUIT (TRIB.: ORANJE),LEEGTE (27817467),ZA,-27.5606,26.2333,1895,1240,1159500,0,1971,2004,34,1.8,,,,,0.068,0.197886976,198.5003456,0.019850035,-27.56,26.235,81987.21875,0.55396086,1370.12207,470,824,26.125,-27.625
1159600,STROMBERGSPRUIT,DIEP KLOOF,ZA,-31.04,26.34,2400,-999,1159303,0,1977,1981,5,2.4,1977,1981,5,2.08,0.152,0.187122598,1865.126563,0.186512656,-31.025,26.33,2798.977051,0.188342482,2173.989014,484,825,26.375,-31.125
1159601,WONDERBOOM SPRUIT,DIEPKLOOF (27819101),ZA,-31.0008,26.3531,2397,1376,1159303,0,1912,2014,103,2.03,1912,2001,90,18.5,1.219,0.027310671,354.1972562,0.035419726,-31,26.35,2834.970703,0.01109256,2383.705566,484,825,26.375,-31.125
1159650,ORANGE,ALIWAL NOORD (27819103),ZA,-30.6781,26.7164,37070,1298,1159303,0,1907,2015,109,5.33,1915,2001,87,0,138.033,0.02587119,345.4088988,0.03454089,-30.675,26.715,37207.54297,0.008531789,36911.86328,482,826,26.625,-30.625
1159651,ORANGE,ORANJEDRAAI (27819109),ZA,-30.3364,27.3583,24745,1394,1159650,0,1958,2015,58,1.62,,,,,123.022,0.018400074,234.4602127,0.023446021,-30.335,27.36,24814.13867,0.008308181,24642.20703,481,829,27.375,-30.375
1159660,KRAAIRIVIER,ROODEWAL (27819111),ZA,-30.8306,26.9206,8689,1320,1159650,0,1965,2015,51,6.05,,,,,20.893,0.00941038,89.486342,0.008948634,-30.83,26.92,9048.985352,0.010333872,8644.104492,483,827,26.875,-30.875
1159670,KLEIN-CALEDONRIVIER,THE POPLARS (27818012),ZA,-28.6947,28.2347,522,-999,1159303,0,1968,2015,48,2.49,,,,,0.99,0.037065213,462.1571014,0.04621571,-28.69,28.235,1619.098022,0.018764218,517.1025391,474,832,28.125,-28.625
1159800,VAAL,ELANDSFONTEIN ENGELBRECHTSDRIFT,ZA,-26.8202,28.0633,38564,-999,1159500,0,1915,1993,79,10.79,1915,1993,79,9.9,46.64,0.013594699,190.2601566,0.019026016,-26.82,28.065,38718.23438,0.002732066,38616.67969,466,832,28.125,-26.625
1159810,WILGERIVIER (TRIB.: ORANJE),SLABBERTS (27817822),ZA,-27.2983,28.4956,15522,1498,1159800,0,1961,2008,48,5.33,,,,,30.28,0.014734308,179.2279101,0.017922791,-27.3,28.495,15716.76465,0.008357341,15457.13867,469,833,28.375,-27.375
1159820,CORNELIUSRIVIER,C8H003 (27817803),ZA,-27.8478,28.945,864,1091,1159810,0,1954,2014,61,6.47,,,,,1.255,0.019466283,214.3107596,0.021431076,-27.85,28.945,1039.569702,0.015536697,870.711853,471,835,28.875,-27.875
1159825,VAALBANKSPRUIT,VOORSPOED (27817812),ZA,-28.085,28.8367,393,1597,1159810,0,1971,2014,44,1.7,,,,,0.418,0.019623603,189.2431235,0.018924312,-28.085,28.835,4149.564941,0.021022186,388.8691406,472,835,28.875,-28.125
1159830,ELANDSRIVIER (TRIB. ORANJE),C8H005 (27817805),ZA,-28.3756,28.8617,690,-999,1159810,0,1963,2015,53,6.99,,,,,3.434,0.020659833,198.0775561,0.019807756,-28.375,28.86,887.9440308,0.022363989,697.7155762,472,835,28.875,-28.125
1159850,RIETFONTEINSPRUIT,RIETFONTEIN (27817428),ZA,-26.2481,27.5894,32,1602,1159500,0,1957,1993,37,0.35,,,,,0.026,0.028452587,313.0571894,0.031305719,-26.245,27.59,478.0834961,0.022746325,32.36394119,465,830,27.625,-26.375
1159855,KOCKSOORTDSPRUIT,MIDDELVLEI (27817427),ZA,-26.2336,27.6519,5,1630,1159500,0,1957,1992,36,2.03,,,,,0.002,0.064485209,371.6770442,0.037167704,-26.235,27.655,404.2852783,0.119120218,4.702199459,465,830,27.625,-26.375
1159860,MIDDELVLEISPRUIT,MIDDELVLEI (27817426),ZA,-26.2328,27.6686,26,1614,1159500,0,1957,1996,40,13.14,,,,,0.011,0.067789161,486.6289952,0.0486629,-26.23,27.665,384.9354858,0.106041685,24.62145805,465,830,27.625,-26.375
1159900,KLIP,DELANGESDRIFT,ZA,-27.1694,29.2331,4152,-999,1159800,0,1906,2015,110,4.82,1906,2001,96,2.62,7.148,0.018223637,219.3907721,0.021939077,-27.17,29.235,4215.194336,0.010792756,4129.594238,467,835,28.875,-26.875
1159910,WATERVALRIVIER (TRIB.: ORANJE),ELANDSLAAGTE (27817908),ZA,-26.8614,28.8844,2239,1520,1159800,0,1973,2014,42,3.86,,,,,3.688,0.01454808,151.9281389,0.015192814,-26.86,28.885,2369.061523,0.013258614,2224.156982,467,834,28.625,-26.875
1160100,RIVIERSONDEREND,DWARSHOEK (27694403),ZA,-34.0775,19.29,502,307,0,0,1932,1974,43,6.29,,,,,5.424,0.037077586,262.6746537,0.026267465,-34.08,19.29,602.8952026,0.058697827,516.7331543,496,797,19.375,-34.125
1160101,RIVIERSONDEREND,SWARTE WATER (27694408),ZA,-34.0622,19.0722,39,380,1160100,0,1964,1992,29,0.95,,,,,1.943,0.029284066,336.9742862,0.033697429,-34.06,19.07,115.6036987,0.02045734,39.39891815,496,796,19.125,-34.125
1160110,JAKKALSRIVIER,LEBANON FOREST RES. (27711209),ZA,-34.1661,19.1325,2,467,0,0,1964,1992,29,0.36,,,,,0.011,0.061218845,699.30713,0.069930713,-34.16,19.13,237.8817291,0.043795109,2.043795109,497,796,19.125,-34.375
1160111,KLEIN-JAKKALSRIVIER,LEBANON FOREST RES. (27711208),ZA,-34.1536,19.1356,1,754,1160110,0,1964,1992,29,0.75,,,,,0.023,0.093874209,1189.137594,0.118913759,-34.155,19.125,198.5564575,0.043795109,1.021897554,497,796,19.125,-34.375
1160115,KLEINRIVIER,HAGEDISBERG OUTSPAN (27711206),ZA,-34.4053,19.5958,599,55,0,0,1963,2014,52,0.62,,,,,0.982,0.007054881,94.44969049,0.009444969,-34.405,19.595,678.6227417,0.002274706,599.6812744,497,797,19.375,-34.375
1160120,SALT RIVER (ZA-WESTERN CAPE),KYKOEDY (27711108),ZA,-34.2917,20.0228,381,140,0,0,1964,2014,51,0.12,,,,,0.131,0.024429932,302.6408126,0.030264081,-34.29,20.025,551.2456055,0.012761634,378.5689087,497,800,20.125,-34.375
1160200,SWART-DORINGRIVIER,BRUINTJIESHOOGTE (27713201),ZA,-30.8239,18.1175,2351,175,0,0,1967,2014,48,2.26,1967,2001,35,9.05,0.024,0.03470214,497.7037529,0.049770375,-30.82,18.115,2655.710449,0.004565669,2345.633057,483,792,18.125,-30.875
1160210,JONKERSHOEKRIVIER,JONKERSHOEK (27711308),ZA,-33.9864,18.9556,20,299,0,0,1947,1995,49,2.76,,,,,0.985,0.120494581,161.8231351,0.016182314,-33.985,18.955,63.74747467,0.329119116,23.2911911,496,795,18.875,-34.125
1160220,LEEU,LEEUW (27712207),ZA,-32.7803,19.2831,267,837,1160320,0,1930,2015,86,29.44,1970,2001,32,7.49,1.059,0.087723754,595.7031621,0.059570316,-32.775,19.285,637.0808105,0.144030631,286.2280884,491,797,19.375,-32.875
1160230,JAN DISSELSRIVIER,CLANWILLIAM (27712306),ZA,-32.2117,18.9367,163,116,0,0,1971,2015,45,10.91,,,,,1.41,0.086181149,260.4891309,0.026048913,-32.21,18.935,2311.301514,0.206445619,179.8253174,488,795,18.875,-32.125
1160235,DORING,MELKBOOM,ZA,-31.8625,18.6864,24044,-999,0,0,1927,2015,89,1.32,,,,,12.226,0.02221983,306.2498651,0.030624987,-31.865,18.685,26998.45117,0.005409516,23978.9668,487,794,18.625,-31.875
1160240,KLEIN-BERGRIVIER,MOUNTAIN VIEW (27711421),ZA,-33.1847,19.1553,19,345,1160265,0,1968,2015,48,7.72,,,,,0.478,0.034530241,45.9400298,0.004594003,-33.185,19.155,177.7032623,0.094402716,19.89682579,492,796,19.125,-33.125
1160245,VIER-EN-TWINTIG-RIVIERE,DRI-DAS-BOSCH (27711428),ZA,-33.1344,19.0606,183,130,0,0,1972,2015,44,2.38,,,,,3.01,0.03260781,467.7456798,0.046774568,-33.13,19.06,262.1974487,0.004274295,183.391098,491,795,18.875,-32.875
1160250,DIEPRIVIER,MALMESBURY (27711312),ZA,-33.4639,18.7403,246,117,0,0,1965,2015,51,0.35,,,,,0.331,0.032380468,412.4840572,0.041248406,-33.46,18.74,389.1425171,0.014644592,244.1987152,493,794,18.625,-33.375
1160255,MOSSELBANKRIVIER,KLIPPHEUWEL (27711313),ZA,-33.705,18.6997,473,59,0,0,1966,1986,21,4.02,,,,,0.487,0.007544666,33.39588229,0.003339588,-33.705,18.7,1339.36499,0.015954822,469.2266846,494,794,18.625,-33.625
1160257,SILWERSTROOMRIVIER,BUFFELS RIVER (27711318),ZA,-33.5819,18.3619,23,14,0,0,1974,1993,20,5.93,,,,,0.022,0.159508657,759.0636834,0.075906368,-33.575,18.36,35.48591995,0.326713234,26.75720215,-1,-1,0,0
1160260,BERGRIVIER,FARM 187 (27711407),ZA,-33.8086,18.9842,726,140,0,0,1951,1977,27,10.64,,,,,15.919,0.439280431,2007.305624,0.200730562,-33.825,18.975,586.7907715,0.916380167,393.3540039,495,795,18.875,-33.875
1160265,KLEIN-BERGRIVIER,NIEUWKLOOF (27711408),ZA,-33.3139,19.0744,395,93,0,0,1954,2015,62,3.26,,,,,2.238,0.00933932,133.6192953,0.01336193,-33.315,19.075,1657.071533,0.0012941,395.2555847,492,796,19.125,-33.125
1160270,WATERVALRIVIER (ZA-WESTERN CAPE),WATERVALSBERGE (27711412),ZA,-33.3522,19.1003,35,277,1160265,0,1964,1996,33,1.68,,,,,0.432,0.021408206,233.8177519,0.023381775,-33.35,19.1,412.8000488,0.017461069,35.3055687,492,796,19.125,-33.125
1160271,WATERVALRIVIER (ZA-WESTERN CAPE),WATERVALSBERGE (27711411),ZA,-33.3794,19.1494,27,181,1160270,0,1964,2015,52,1.11,,,,,0.441,0.231506502,1539.299122,0.153929912,-33.37,19.16,784.0718384,0.386659682,32.21990585,492,796,19.125,-33.125
1160275,KNOLVLEISPRUIT,KNOLVLEI BOS RES. (27711410),ZA,-33.3881,19.1592,10,176,1160265,0,1964,2015,52,1.03,,,,,0.017,0.041289907,569.9635323,0.056996353,-33.385,19.155,825.7904663,0.009877014,10.04938507,492,796,19.125,-33.125
1160276,BRAKKLOOFSPRUIT,KNOLVLEI BOS RES. (27711409),ZA,-33.3906,19.1714,5,194,1160265,0,1964,2015,52,3.01,,,,,0.013,0.0594112,168.1322204,0.016813222,-33.39,19.17,825.7904663,0.144607157,4.638482094,492,796,19.125,-33.125
1160280,ZACHARIASHOEKRIVIER,ZACHARIASHOEK (27711414),ZA,-33.8275,19.0347,3,321,1160260,0,1964,2015,52,32.96,,,,,0.039,0.078791396,585.622617,0.058562262,-33.825,19.03,542.8967285,0.119249664,2.821125507,495,796,19.125,-33.875
1160281,ZACHARIASHOEKSPRUIT,ZACHARIASHOEK (27711417),ZA,-33.8264,19.0278,2,440,1160260,0,1964,1988,25,0.2,,,,,0.021,0.249251885,2196.109936,0.219610994,-33.81,19.04,542.8967285,0.308533669,2.308533669,495,796,19.125,-33.875
1160285,KASTEELKLOOFSPRUIT,LOWER ZACHARIASHOEK (27711416),ZA,-33.8219,19.0589,3,280,1160260,0,1964,2015,52,41.18,,,,,0.094,0.145769529,736.2515133,0.073625151,-33.815,19.06,513.6437988,0.290058285,2.564912558,495,796,19.125,-33.875
1160286,KASTEELKLOOFSPRUIT,UPPER ZACHARIASHOEK (27711415),ZA,-33.8153,19.0611,2,358,1160285,0,1964,1988,25,0.07,,,,,0.049,0.196734477,126.4543675,0.012645437,-33.815,19.06,520.8275757,0.564912558,2.564912558,495,796,19.125,-33.875
1160287,BAKKERSKLOOFSPRUIT,ZACHARIASHOEK (27711418),ZA,-33.8225,19.0464,4,288,1160260,0,1964,2015,52,32.03,,,,,0.073,0.088566409,305.763279,0.030576328,-33.82,19.045,540.8434448,0.204546571,3.590906858,495,796,19.125,-33.875
1160290,BANGHOEKRIVIER,JONKERSHOEK (27711419),ZA,-33.9125,18.9439,30,259,1160260,0,1968,2015,48,7.7,,,,,0.545,0.086887116,290.3126118,0.029031261,-33.91,18.945,406.684021,0.202598825,33.03898239,495,795,18.875,-33.875
1160295,FRANSCHHOEKRIVIER,LE MOUILLAGE (27711403),ZA,-33.8906,19.0789,46,199,1160260,0,1949,2014,66,6.82,,,,,0.747,0.065677955,681.9763474,0.068197635,-33.89,19.085,327.5147095,0.060638595,47.39468765,495,796,19.125,-33.875
1160300,BREE,CERES TOEKEN GEB.,ZA,-33.3806,19.3014,657,441,1160301,0,1923,2014,92,3.23,1923,2001,79,2.77,3.375,0.038038879,168.1134693,0.016811347,-33.38,19.3,746.2045288,0.080493942,630.5577393,493,797,19.375,-33.375
1160301,BREE,CERES TOEKEN GEB.,ZA,-33.4217,19.2669,753,294,1160302,0,1950,2015,66,4.31,1950,2001,52,4.72,7.549,0.036788472,276.8560094,0.027685601,-33.42,19.265,794.1141968,0.054994214,732.2946777,493,797,19.375,-33.375
1160302,BREE,OUDE PONT (27694301),ZA,-34.0703,20.39,9854,77,0,0,1912,1940,29,0.9,,,,,39.61,0.004469594,31.3033485,0.003130335,-34.07,20.39,9979.447266,0.007148113,9818.78125,496,801,20.375,-34.125
1160310,KOEKEDOURIVIER,CERES (27694913),ZA,-33.3594,19.2981,52,455,1160300,0,1965,2015,51,1.52,,,,,0.601,0.053588651,576.8868299,0.057688683,-33.355,19.295,739.5079956,0.045388587,50.8198967,493,797,19.375,-33.375
1160315,ROOIELSKLOOFRIVIER,ROODE ELS BERG (27694805),ZA,-33.4617,19.6172,16,482,1160300,0,1969,2015,47,0.16,,,,,0.234,0.061939222,302.9093461,0.030290935,-33.46,19.615,389.1161804,0.125235796,17.00188637,493,798,19.625,-33.375
1160317,WITRIVIER (TRIB. BREE),DROSTERSKLOOF (27694907),ZA,-33.5683,19.1447,85,273,1160302,0,1935,2015,81,3.01,,,,,3.302,0.027926698,348.6400336,0.034864003,-33.565,19.145,1093.356445,0.014052088,85.59721375,494,796,19.125,-33.625
1160318,HOLSLOOT,D/S DASHBOCH RIVER (27694912),ZA,-33.7567,19.3297,152,296,1160302,0,1963,1986,24,1.7,,,,,1.241,0.015181303,181.6711335,0.018167113,-33.755,19.33,211.2697906,0.009209683,151.3000641,495,797,19.375,-33.875
1160320,DORING,ELANDS DRIFT - ASPOORT (27712202),ZA,-32.5028,19.535,6895,389,0,0,1923,2015,93,3.83,1923,2001,79,2.67,8.348,0.019577126,230.8056423,0.023080564,-32.505,19.535,6897.486816,0.01257025,6851.664063,489,798,19.625,-32.375
1160324,WILLEM NELSRIVIER,LANGEVALLEY (27694705),ZA,-33.7639,19.8508,24,558,1160302,0,1950,1981,32,0.41,,,,,0.185,0.119595796,1632.624508,0.163262451,-33.76,19.865,5299.985352,0.032262485,24.38714981,495,799,19.875,-33.875
1160325,HOEKSRIVIER,HOEKSBERG (27694709),ZA,-34.0103,19.8378,18,336,1160302,0,1967,1992,26,10.33,,,,,0.041,0.060387432,246.9094021,0.02469094,-34.01,19.84,125.6671829,0.131780416,19.18602371,495,799,19.875,-33.875
1160327,WATERKLOOFSPRUIT,POESJENELS RIVER (27694712),ZA,-33.9542,19.5872,15,370,1160302,0,1969,1992,24,2.93,,,,,0.022,0.062937054,503.9923346,0.050399233,-33.95,19.585,161.8338623,0.088012695,14.33990479,495,798,19.625,-33.875
1160328,WATERKLOOFRIVIER,WAGGENSBOOMS KLOOF (27694410),ZA,-33.9833,19.3292,15,405,0,0,1969,2014,46,2.97,,,,,0.065,0.062849212,669.8925969,0.06698926,-33.985,19.335,488.3451538,0.054569118,14.59073162,496,797,19.375,-34.125
1160330,KRUISRIVIER (TRIB. DORINGRIVIER),TWEEKUILEN (27711501),ZA,-32.6017,18.7494,660,51,1160320,0,1970,2009,40,3.24,,,,,0.342,0.014045699,191.2430195,0.019124302,-32.6,18.75,1334.689819,0.003888494,661.2832031,489,794,18.625,-32.375
1160331,ELANDSRIVIER (TRIB. BREE - ZA),TWIST NIET (27694406),ZA,-33.9647,19.2914,56,389,1160302,0,1964,1982,19,0.66,,,,,0.873,0.020948563,159.0029721,0.015900297,-33.965,19.29,487.5779419,0.031045096,56.8692627,496,797,19.375,-34.125
1160332,DUTOITSRIVIER,PURGATORY UITSPAN (27694407),ZA,-33.9386,19.1706,46,389,1160302,0,1964,1992,29,0.8,,,,,1.178,0.012838871,161.6491912,0.016164919,-33.94,19.17,280.4853821,0.006186775,45.85770416,496,796,19.125,-34.125
1160340,HEXRIVIER,NEW GLEN HEATLIE (27694801),ZA,-33.5622,19.51,699,302,1160302,0,1927,1989,63,2,,,,,1.562,0.024737125,293.7980685,0.029379807,-33.565,19.51,754.0311279,0.015451762,704.4003906,494,797,19.375,-33.625
1160343,KINGNARIVIER,MONTAGUE (27694601),ZA,-33.7911,20.1239,593,214,1160302,0,1925,1948,24,6.06,,,,,0.334,0.014827888,167.9694084,0.016796941,-33.79,20.125,1158.599243,0.010889784,596.2288208,495,799,19.875,-33.875
1160345,KEISIERIVIER,KEISIESDOORNS (27694605),ZA,-33.7089,20.0583,76,324,1160302,0,1965,2014,50,0.39,,,,,0.032,0.054710606,548.8749695,0.054887497,-33.705,20.055,450.0527039,0.054356825,78.06555939,494,800,20.125,-33.625
1160346,KEISIERIVIER,HARMONIE (27694604),ZA,-33.6964,19.9281,14,544,1160345,0,1965,1992,28,4.04,,,,,0.016,0.140922756,374.9060758,0.037490608,-33.695,19.925,118.2076187,0.347787052,16.43450928,494,800,20.125,-33.625
1160347,KOORIVIER,DWARS IN DIE WEG (27694708),ZA,-33.5964,19.7619,106,703,1160340,0,1965,1992,28,12.47,,,,,0.017,0.021217669,257.3853459,0.025738535,-33.595,19.76,428.9181519,0.012175938,106.6453247,494,797,19.375,-33.625
1160348,KOORIVIER,DIE KOO (27694707),ZA,-33.6386,19.8136,48,829,1160347,0,1965,1992,28,0.79,,,,,0.008,0.050412595,550.2294493,0.055022945,-33.635,19.81,310.3612061,0.041191895,47.0113945,494,797,19.375,-33.625
1160350,TOUWSRIVIER,ZANDFONTEIN,ZA,-33.5719,20.7019,2900,459,0,0,1969,2001,33,3.7,1969,1980,12,0,0.485,0.019408104,289.6213593,0.028962136,-33.57,20.7,2913.810547,0.00030004,2900.435059,494,802,20.625,-33.625
1160351,TOUWSRIVIER,FARM 162 (27692705),ZA,-33.9453,22.6142,79,136,1160350,0,1969,2014,46,0.48,,,,,0.432,0.043640285,468.5571443,0.046855714,-33.945,22.61,170.0825806,0.037209425,80.46977234,495,810,22.625,-33.875
1160360,BOKRIVIER,LOT B (27693215),ZA,-33.3542,19.7192,9,1036,1160350,0,1974,2015,42,1.02,,,,,0.096,0.060089129,642.1134341,0.064211343,-33.35,19.715,155.3242188,0.051844701,8.766698837,493,799,19.875,-33.375
1160361,SMALBLAARRIVIER,VERLORENVALLEY (27693216),ZA,-33.2881,19.7272,30,889,1160350,0,1974,2015,42,1.5,,,,,0.061,0.102460643,1167.408529,0.116740853,-33.28,19.72,140.061554,0.073900223,28.89149666,493,799,19.875,-33.375
1160365,HUISRIVIER (TRIB. TOUWSRIVIER),ZOAR (27693405),ZA,-33.4894,21.4892,268,471,1160350,0,1955,2014,60,1.78,,,,,0.227,0.056422216,745.0296751,0.074502968,-33.495,21.485,383.7206421,0.020260712,265.2850647,493,805,21.375,-33.375
1160367,WILGERHOUTRIVIER,OPZOEK (27693406),ZA,-33.4894,21.4894,25,470,1160365,0,1955,2014,60,10.86,,,,,0.029,0.037159452,460.6243529,0.046062435,-33.485,21.49,383.7206421,0.019353485,25.24191856,493,805,21.375,-33.375
1160368,JOUBERTRIVIER,OPZOEK (27693407),ZA,-33.4919,21.5142,25,469,1160365,0,1955,2014,60,2.62,,,,,0.034,0.021709514,215.9846482,0.021598465,-33.49,21.515,17348.56055,0.021931611,24.72585487,494,806,21.625,-33.625
1160370,WEYERSRIVIER,WEYERS RIVER (27693103),ZA,-34.0308,21.5864,95,119,0,0,1965,2014,50,2.61,,,,,0.59,0.013769877,176.481924,0.017648192,-34.03,21.585,43654.39453,0.006013248,94.71437073,496,806,21.625,-34.125
1160375,LANGTOURIVIER,LANGFONTEIN (27693104),ZA,-33.9875,21.7597,101,102,0,0,1967,1996,30,2.71,,,,,0.234,0.086054249,260.617334,0.026061733,-33.985,21.76,43694.54688,0.20603928,111.4049835,496,807,21.875,-34.125
1160378,GAMKA RIVER,SPEK BOOM BERG,ZA,-33.31,21.6342,17076,-999,0,0,1964,2014,51,5.87,,,,,1.371,0.033065393,467.5418595,0.046754186,-33.31,21.63,17237.79688,0.005687807,17027.4375,493,806,21.625,-33.375
1160380,OLIFANTSRIVIER,PARDEKLOOF (27693304),ZA,-33.4769,23.0294,4230,571,0,0,1923,1993,71,1.49,,,,,0.392,0.01473328,205.7909122,0.020579091,-33.475,23.03,4486.066895,0.003041657,4236.433105,493,812,23.125,-33.375
1160385,WILGERIVIER (ZA-WESTERN CAPE),WILGEHOUTE RIVER (27693316),ZA,-33.5453,22.9739,33,652,0,0,1967,2014,48,4.97,,,,,0.038,0.037713921,435.2334577,0.043523346,-33.545,22.97,4589.51709,0.026095072,33.4305687,493,810,22.625,-33.375
1160390,GROOTRIVIER (ZA-WESTERN CAPE),DE RUST (27693312),ZA,-33.4756,22.5478,692,480,0,0,1964,1994,31,4.37,,,,,0.394,0.026727699,317.7400914,0.031774009,-33.475,22.545,6217.405762,0.016635079,686.2442627,494,810,22.625,-33.625
1160393,KANDELAARSRIVIER,PAARDENDRIFT (27693317),ZA,-33.6792,22.14,351,278,0,0,1969,2014,46,3.35,,,,,0.209,0.014338071,82.4891421,0.008248914,-33.68,22.14,9924.696289,0.026516385,346.3463745,494,808,22.125,-33.625
1160395,PERDEPOORTRIVIER,GROENEFONTEIN (27693313),ZA,-33.3681,22.1792,29,698,0,0,1966,2014,49,1.84,,,,,0.239,0.04097169,566.3168045,0.05663168,-33.365,22.175,223.7405853,0.00965171,29.1399498,493,808,22.125,-33.375
1160396,WYNANDSRIVIER,KOETZERS KRAAL (27693318),ZA,-33.4675,22.0006,137,460,0,0,1969,2014,46,3.36,,,,,0.233,0.02576502,266.5378743,0.026653787,-33.465,22,302.156189,0.023987485,138.6431427,494,808,22.125,-33.625
1160398,MEULRIVIER,VOGELFONTEIN (27693320),ZA,-33.4608,21.9603,35,583,1160396,0,1974,2014,41,0.95,,,,,0.057,0.021422442,89.09022757,0.008909023,-33.46,21.96,288.2602539,0.046449281,35.8128624,494,807,21.875,-33.625
1160400,MAALGATE,KNOETZE KAMA (27692703),ZA,-34.0067,22.3503,145,117,0,0,1961,2014,54,2.11,1961,2001,41,0.83,0.816,0.018733967,178.1842066,0.017818421,-34.005,22.35,186.4072723,0.020565059,146.4909668,496,809,22.375,-34.125
1160405,MAALGASRIVIER,BLANCO (27692704),ZA,-33.9508,22.4222,34,200,0,0,1961,2014,54,0.33,,,,,0.55,0.023720138,258.3690888,0.025836909,-33.95,22.42,150.3293762,0.019486595,34.33127213,-1,-1,0,0
1160410,BENEKERIVIER,PINE GROVE FOREST (27692902),ZA,-33.9353,22.1306,4,401,0,0,1958,2014,57,8.93,,,,,0.047,0.02134648,73.60802268,0.007360802,-33.935,22.13,177.7446747,0.049317837,4.098635674,496,808,22.125,-34.125
1160415,HARTENBOSRIVIER,HARTENBOSCH (27692901),ZA,-34.1031,22.0714,144,11,0,0,1937,1977,41,17.59,,,,,0.112,0.028663075,355.755563,0.035575556,-34.1,22.07,554.5281372,0.014838113,142.9316559,-1,-1,0,0
1160420,KAAIMANSRIVIER,UPPER BARBIERSKRAAL (27692701),ZA,-33.9708,22.5472,47,75,0,0,1961,2014,54,7.2,,,,,0.41,0.055604239,258.345419,0.025834542,-33.97,22.545,170.0825806,0.115143634,49.7058754,-1,-1,0,0
1160425,DIEPRIVIER,WOODVILLE FOREST RES. (27692603),ZA,-33.9125,22.7078,72,218,0,0,1961,2014,54,2.15,,,,,0.298,0.031926327,403.8110683,0.040381107,-33.915,22.705,129.9033661,0.015016768,72.54060364,496,811,22.875,-34.125
1160427,KARATARARIVIER,KARATARA FOREST RES. (27692602),ZA,-33.8806,22.8378,23,256,0,0,1961,2014,54,1.88,,,,,0.302,0.026503926,317.7147889,0.031771479,-33.88,22.835,109.7114029,0.01596882,22.81635857,496,811,22.875,-34.125
1160430,KNYSNARIVIER,MILWOOD FOREST RES. (27692502),ZA,-33.8908,23.0292,135,194,0,0,1961,2014,54,2.27,,,,,0.84,0.04524881,121.0290731,0.012102907,-33.89,23.03,325.3575439,0.111540616,142.5289917,-1,-1,0,0
1160435,GOUNARIVIER,GOUNA COMMONAGE CON. (27692501),ZA,-33.9911,23.0419,94,61,0,0,1959,1992,34,5.61,,,,,0.27,0.032645833,239.6511281,0.023965113,-33.99,23.04,352.7409058,0.050007273,91.6496582,-1,-1,0,0
1160440,KEURBOOMSRIVIER,NEWLANDS (27692402),ZA,-33.9383,23.3672,764,15,0,0,1961,1981,21,8.56,,,,,0,0.02166173,300.2618358,0.030026184,-33.94,23.365,854.0549927,0.004932823,762.1156616,496,813,23.375,-34.125
1160441,KEURBOOMSRIVIER,MKAMA (27692401),ZA,-33.8033,23.1353,162,320,1160440,0,1961,2014,54,0.46,,,,,0.324,0.024025595,339.4586575,0.033945866,-33.8,23.135,253.7600861,0.004185053,161.6610107,495,812,23.125,-33.875
1160450,HAARLEMSPRUIT,WELGELEGEN (27691302),ZA,-33.7378,23.3042,53,780,0,0,1970,2014,45,2.04,1970,2001,32,0.81,0.358,0.058901807,518.8327023,0.05188327,-33.74,23.3,170.1922913,0.072938882,51.0671196,494,813,23.375,-33.625
1160455,BLOUKRANSRIVIER,LOTTERINGS FOR. RES. (27692301),ZA,-33.9556,23.6383,56,36,0,0,1961,2014,54,1.8,,,,,0.842,0.074053743,679.0389708,0.067903897,-33.95,23.635,89.14959717,0.086353436,58.41789627,-1,-1,0,0
1160457,WABOOMSRIVIER,DIEPKLOOF (27691301),ZA,-33.8656,23.8356,21,578,0,0,1965,2015,51,3.12,,,,,0.367,0.055048145,574.1192646,0.057411926,-33.86,23.835,176.9425354,0.050320581,21.52836609,495,815,23.875,-33.875
1160460,GROOTRIVIER (ZA-EASTERN CAPE),GROOTRIVIERSPOORT (27691206),ZA,-33.7308,24.6178,29571,133,0,0,1964,2015,52,0.81,,,,,2.366,0.022882407,322.0377924,0.032203779,-33.73,24.615,33784.86719,0.004239663,29508.31445,494,818,24.625,-33.625
1160470,HEUNINGKLIPRIVIER,CAMPHERSPOORT (27691501),ZA,-33.2036,24.2342,1296,500,1160460,0,1926,2015,90,0.48,,,,,0.505,0.012349503,167.7109448,0.016771094,-33.205,24.235,25812.38477,0.003506319,1293.727905,492,817,24.375,-33.125
1160480,SOUTRIVIER (ZA-WESTERN CAPE),KAMFERSKRAAL (27691901),ZA,-32.2378,23.0506,3943,944,0,0,1917,1977,61,25,,,,,0.615,0.019743459,294.4838265,0.029448383,-32.235,23.05,4152.161133,0.000333611,3942.342285,488,812,23.125,-32.125
1160481,SOUTRIVIER (ZA-WESTERN CAPE),KLIPKRAAL (27691902),ZA,-32.0689,23.0075,3672,1003,1160480,0,1973,1988,16,1.27,,,,,2.728,0.020518922,300.2568269,0.030025683,-32.07,23.005,3833.660156,0.001505401,3674.763916,488,812,23.125,-32.125
1160487,ELANDSRIVIER (TRIB. INDIAN OCEAN),WINTCANTON (27683204),ZA,-33.7972,25.3089,394,83,0,0,1965,2015,51,11.44,,,,,0.917,0.018323869,253.0023296,0.025300233,-33.795,25.31,971.1896973,0.00437114,394.8611145,495,821,25.375,-33.875
1160490,VOELRIVIER,RIET VLEY (27682302),ZA,-33.0003,25.1642,1742,312,0,0,1978,1992,15,2.92,,,,,0.463,0.007539164,94.04533109,0.009404533,-33,25.165,1900.466675,0.003808426,1738.682861,491,820,25.125,-32.875
1160495,VOLKERSRIVIER,VOLKERS RIVER (27682209),ZA,-33.1075,25.2283,542,264,0,0,1978,1989,12,9.2,,,,,2.169,0.038016923,445.3434886,0.044534349,-33.105,25.225,16655.16602,0.024982072,535.2298584,492,820,25.125,-33.125
1160500,BOESMANS,DONKER HOEK ALICEDALE,ZA,-33.3292,26.0775,1479,276,0,0,1957,2015,59,2.97,1958,2001,44,4.21,0.322,0.021823965,289.5663684,0.028956637,-33.33,26.075,1627.322998,0.00755862,1473.4104,493,824,26.125,-33.375
1160510,GROOT-VIS,BRANDT LEGTE PIGGOT'S BRIDGE,ZA,-33.0981,26.4447,23067,300,1160580,0,1935,2015,81,0.57,1935,2001,67,7.68,6.359,0.013201381,192.2977446,0.019229774,-33.1,26.445,23344.93945,0.001144594,23053.79883,492,825,26.375,-33.125
1160511,GROOT-VIS,KATKOP (27673901),ZA,-31.9031,25.4817,9545,975,1160510,0,1918,1993,76,0.7,,,,,8.804,0.057222668,364.4991788,0.036449918,-31.9,25.48,9475.619141,0.098768167,9073.628906,487,821,25.375,-31.875
1160512,GROOT-VIS,ZOUTPANSDRIFT (27673802),ZA,-31.9042,25.4306,1717,980,1160511,0,1975,2015,41,1.6,,,,,0.351,0.031084086,427.4909918,0.042749099,-31.9,25.43,9159.5625,0.00775406,1710.34314,487,821,25.375,-31.875
1160520,TEEBUSRIVIER,JAN BLAAUWS KOP (27673912),ZA,-31.57,25.5439,1565,1120,1160511,0,1977,2015,39,0.35,,,,,16.345,0.031209389,434.1460121,0.043414601,-31.57,25.54,3343.678223,0.006798965,1570.32019,486,822,25.625,-31.625
1160525,PAULSRIVIER,COUTZENBURG (27673704),ZA,-32.3856,25.5206,878,1337,1160510,0,1975,2015,41,1.8,,,,,0.371,1.0051899,6384.771529,0.638477153,-32.37,25.465,232.2728271,1.738615394,114.7478485,490,821,25.375,-32.625
1160530,BAVIAANSRIVIER,BOTMANSGAT (27673403),ZA,-32.6058,25.8844,806,630,1160510,0,1980,2015,36,0.79,,,,,0.259,0.037575644,496.3157647,0.049631576,-32.605,25.88,18384.44922,0.01346378,811.4259033,490,823,25.875,-32.625
1160535,VLEKPOORTRIVIER,ROBERTS KRAAL (27673603),ZA,-31.9683,26.0011,1308,1111,1160510,0,1964,1992,29,1.79,,,,,0.416,0.029795375,352.1497485,0.035214975,-31.965,26,1494.500854,0.018956175,1295.602661,487,823,25.875,-31.875
1160540,KAPRIVIER,KAP RIVER MOUNTAINS (27673113),ZA,-33.3553,26.8614,47,267,0,0,1963,1993,31,0.12,,,,,0.036,0.05208289,548.9258444,0.054892584,-33.35,26.86,96.47685242,0.046463501,45.90810776,493,828,27.125,-33.375
1160545,KOWIERIVIER,BATHURST (27681101),ZA,-33.5067,26.7442,575,39,0,0,1969,2015,47,1.12,,,,,0.88,0.031572876,191.0269025,0.01910269,-33.505,26.745,681.0487671,0.056513246,591.2475586,494,827,26.875,-33.625
1160550,OSKRAALRIVIER,WHITTLESEA,ZA,-32.1808,26.8206,462,1055,0,0,1964,1997,34,1.11,1964,1997,34,0.76,0.397,0.007900976,103.8146751,0.010381468,-32.18,26.82,1369.027954,0.002939992,461.3208618,488,827,26.875,-32.125
1160580,GROOT-VIS,MATOLEMA'S LOCATION OUTSPAN,ZA,-33.2378,26.9947,29745,38,0,0,1969,2015,47,9.66,1969,2001,33,11.83,10.843,0.019349895,279.7352273,0.027973523,-33.235,26.995,29800.94141,0.002102638,29713.72852,492,828,27.125,-33.125
1160600,KEISKAMMA,FARM 7,ZA,-33.1853,27.3906,2530,7,0,0,1969,2015,47,2.89,1969,2001,33,0,3.479,0.034874735,490.7024379,0.049070244,-33.185,27.395,2635.13916,0.006483719,2521.798096,493,829,27.375,-33.375
1160601,KEISKAMMA,KAMAS LOC. (27672413),ZA,-33.0117,26.9542,1429,283,1160600,0,1950,1986,37,20.3,,,,,4.271,0.076194849,339.3413281,0.033934133,-33.015,26.955,28814.24609,0.16071628,1543.831787,492,827,26.875,-33.125
1160602,KEISKAMMA,ZANYOKWE (27672405),ZA,-32.7517,27.0903,482,521,1160601,0,1948,1995,48,15.61,,,,,1.336,0.029066754,328.7529194,0.032875292,-32.755,27.09,654.6263428,0.02144968,487.1693726,490,828,27.125,-32.625
1160605,RABULA,ZANYOKWE LOC. 3 (27672406),ZA,-32.7517,27.0978,100,526,1160601,0,1948,1977,30,11.91,,,,,0.244,0.033215214,297.2524125,0.029725241,-32.75,27.1,647.6203003,0.04019516,102.009758,490,828,27.125,-32.625
1160607,MTWAKU,MTWAKU LOC. 13 (27672407),ZA,-32.6375,27.1925,33,691,1160601,0,1948,1977,30,0.59,,,,,0.061,0.068303799,793.0464668,0.079304647,-32.63,27.195,294.499115,0.046302103,32.23601532,490,828,27.125,-32.625
1160610,MGQAKWEBE,MSENGE RIDGE (27672206),ZA,-32.8583,27.3706,121,397,1160540,0,1948,2015,68,10.45,,,,,0.329,0.034230661,332.9976147,0.033299761,-32.855,27.37,632.4084473,0.03609246,118.8164063,491,829,27.375,-32.875
1160611,MGQAKWEBE,SHESHEGU (27672209),ZA,-32.9153,27.3861,103,372,1160610,0,1947,2015,69,0.35,,,,,0.106,0.031422869,435.1574804,0.043515748,-32.915,27.39,882.1675415,0.00723711,103.3727112,491,829,27.375,-32.875
1160612,MGQAKWEBE,JEFTAS LOC 29 (27672212),ZA,-32.7869,27.2628,15,551,1160611,0,1959,1997,39,1.06,,,,,0.134,0.049635494,364.0093489,0.036400935,-32.785,27.26,233.6708832,0.076104611,15.57078457,491,829,27.375,-32.875
1160615,QWENCWERIVIER,BRAUNSCHWEIG (27672208),ZA,-32.7678,27.3728,62,454,1160640,0,1947,2015,69,0.28,,,,,0.201,0.075526027,809.0232443,0.080902324,-32.76,27.375,284.5083923,0.064773433,59.99202347,491,829,27.375,-32.875
1160620,TYUMERIVIER,GOUMAHASHE LOC. (27672401),ZA,-32.7594,26.8547,238,521,1160600,0,1928,1980,53,8.11,,,,,0.7,0.022723238,68.30863454,0.006830863,-32.76,26.855,398.8856506,0.054507986,244.4864502,492,827,26.875,-33.125
1160621,TYUMERIVIER,KWA KHAYALETU (27672414),ZA,-32.64,26.9358,71,702,1160620,0,1953,2015,63,0.44,,,,,0.586,0.036224408,504.144583,0.050414458,-32.635,26.935,149.6997528,0.007844307,70.7215271,492,827,26.875,-33.125
1160625,BLINKWATERRIVIER,BLINKWATER (27673117),ZA,-32.7019,26.5758,228,477,1160620,0,1965,2015,51,0.01,,,,,0.133,0.017282592,209.0756181,0.020907562,-32.7,26.575,1055.094482,0.010032654,226.8562775,490,826,26.625,-32.625
1160630,KOONAPRIVIER,ADELAIDE (27673102),ZA,-32.7133,26.2958,1245,572,1160580,0,1928,2015,88,1.42,,,,,1.147,0.025184594,341.169386,0.034116939,-32.71,26.295,1646.51123,0.007319904,1249.556641,490,825,26.375,-32.625
1160631,KOONAPRIVIER,SCHURFTEKOP (27673116),ZA,-32.4992,26.365,496,852,1160630,0,1981,1993,13,0.19,,,,,0.454,0.031574325,418.9096546,0.041890965,-32.495,26.365,598.6576538,0.010941044,493.2866211,489,825,26.375,-32.375
1160635,BALFOURRIVIER,GREY KIRK (27673119),ZA,-32.5536,26.6708,77,604,1160625,0,1972,2015,44,0.61,,,,,0.341,0.049646951,165.3052412,0.016530524,-32.555,26.67,687.2286377,0.115879804,81.46137238,490,826,26.625,-32.625
1160640,BUFFELSRIVIER,KING WILLIAMS TOWN (27672205),ZA,-32.8753,27.3828,407,521,0,0,1947,2015,69,20.62,,,,,1.215,0.034388633,313.1020395,0.031310204,-32.875,27.38,640.9581909,0.04054549,415.2510071,491,829,27.375,-32.875
1160641,BUFFELSRIVIER,PIRIE MAIN FOR. RES. (27672201),ZA,-32.7317,27.2933,29,535,1160640,0,1946,2015,70,0.12,,,,,0.283,0.032848636,253.1705058,0.025317051,-32.73,27.295,233.4114227,0.047911808,28.30527878,491,829,27.375,-32.875
1160650,MTAMVUNA,GUNDRIFT (27663201),ZA,-30.7342,29.8286,728,617,0,0,1951,2014,64,1.81,1951,2001,51,0,5.126,0.014372225,173.9453262,0.017394533,-30.735,29.83,896.4459229,0.00832761,731.03125,482,839,29.875,-30.625
1160660,GQUNUBE,OUTSPAN (27672101),ZA,-32.8017,27.8553,509,197,0,0,1972,2015,44,0,,,,,0.626,0.018747714,170.6161705,0.017061617,-32.8,27.855,571.072998,0.022119908,503.3704834,491,832,28.125,-32.875
1160670,KUBUSI,HAMMERHEAD (27711202),ZA,-32.5756,27.6225,490,656,0,0,1947,1995,49,2.71,,,,,1.203,0.020549607,284.5213596,0.028452136,-32.575,27.62,556.1820068,0.004744549,491.1624146,490,830,27.625,-32.625
1160671,KUBUSI,STUTTERHEIM (27711201),ZA,-32.5792,27.3658,91,796,1160670,0,1947,2015,69,5.14,,,,,0.546,0.008102611,119.1053115,0.011910531,-32.58,27.365,327.8675232,0.000486772,91.02214813,490,829,27.375,-32.625
1160675,TOISE,FORKROAD (27711203),ZA,-32.5161,27.5236,216,756,1160670,0,1964,2015,52,1.39,,,,,0.497,0.037703755,415.202858,0.041520286,-32.515,27.52,484.9210205,0.030070694,219.2476349,490,830,27.625,-32.625
1160680,MZIMKULU,FP 1609030 THE BANKS (27663104),ZA,-29.7769,29.4706,545,1476,0,0,1949,2014,66,2.09,1949,2001,53,0.8,7.727,0.024511368,195.8795214,0.019587952,-29.775,29.47,648.8134766,0.0343582,535.6373901,479,837,29.375,-29.875
1160684,GREAT KEI RIVER,AREA 8 SPRINGS B,ZA,-32.5164,28.0181,484,-999,0,0,1990,2015,26,0.77,,,,,21.622,25.25927127,663.5517341,0.066355173,-32.51,28.02,18902.54297,75.64510345,18790.11523,489,832,28.125,-32.375
1160685,PHOLELA,COXHILL (27663103),ZA,-29.7472,29.5389,143,1498,1160680,0,1949,2010,62,7.12,,,,,2.103,0.033939894,483.6151722,0.048361517,-29.745,29.535,604.4130859,0.005096649,143.3644104,480,838,29.625,-30.125
1160687,NKONZO,DRONKVLEI (27663105),ZA,-29.9881,29.8517,97,997,0,0,1949,2014,66,25.4,,,,,0.755,0.055128031,768.0703004,0.07680703,-29.99,29.845,2816.28418,0.011770032,97.57084656,480,839,29.875,-30.125
1160688,BISIRIVIER,NOOITGEDACHT (27663102),ZA,-30.4036,29.8944,873,600,0,0,1934,2014,81,29.99,,,,,4.783,0.013718717,150.718374,0.015071837,-30.405,29.895,1079.072754,0.011012476,868.1930542,481,840,30.125,-30.375
1160690,SWART-KEIRIVIER,CATHCARTS GIFT (27711504),ZA,-32.0503,26.7897,1414,1034,0,0,1964,2015,52,4.55,,,,,0.666,0.036772877,468.236574,0.046823657,-32.055,26.79,2882.921387,0.016671317,1402.213379,488,827,26.875,-32.125
1160700,MKOMAZI,LOT93.1821 CAMDEN (27662505),ZA,-29.7436,29.9047,1744,921,1160701,0,1960,2015,56,2.93,1960,2001,42,1.01,19.664,0.023730119,348.9936416,0.034899364,-29.74,29.905,2124.327637,0.00139163,1745.213501,478,839,29.875,-29.625
1160701,MKOMAZI,DELOS ESTATE (27662506),ZA,-30.1689,30.6969,4358,30,0,0,1962,2007,46,8.72,,,,,30.249,0.029805524,429.069789,0.042906979,-30.165,30.695,4389.884766,0.003602615,4350.149902,480,843,30.875,-30.125
1160705,LOVU,BEAULIEU ESTATE (27661907),ZA,-29.8622,30.2442,115,869,1160701,0,1964,2014,51,5.85,,,,,0.413,0.023145363,283.6123344,0.028361233,-29.865,30.245,175.257782,0.012713623,114.2689667,479,840,30.125,-29.875
1160706,LOVU,BEAULIEU ESTATE (TRIB. 3)(27661905),ZA,-29.8425,30.2689,1,1069,1160705,0,1955,1973,19,18.08,,,,,0.008,0.130829436,1258.803941,0.125880394,-29.845,30.28,177.1298065,0.14072752,1.07036376,480,842,30.625,-30.125
1160707,LOVU,BEAULIEU ESTATE (TRIB. 4)(27661906),ZA,-29.8461,30.2639,1,1038,1160706,0,1962,1974,13,12.55,,,,,0.004,0.110762257,959.565322,0.095956532,-29.855,30.26,177.1298065,0.140373707,1.070186853,480,842,30.625,-30.125
1160708,ZWATENIRIVIER,HIGHLANDS (27661901),ZA,-29.8472,30.2353,16,912,1160705,0,1949,2014,66,5.46,,,,,0.09,0.027831231,214.207091,0.021420709,-29.845,30.235,172.8508759,0.040652275,16.3252182,479,840,30.125,-29.875
1160709,MLAZI,NOOITGEDACHT (27662002),ZA,-29.7489,30.3169,104,851,1160701,0,1981,2014,34,1.56,,,,,0.474,0.030655646,236.4511656,0.023645117,-29.75,30.315,194.4165192,0.044676706,106.3231888,479,841,30.375,-29.875
1160710,MPOFANA,WELTEVREDEN (27662407),ZA,-29.4425,30.1483,353,1060,1160721,0,1954,2014,61,0.24,1954,2001,48,1.06,1.985,0.02058429,306.1465849,0.030614658,-29.445,30.15,949.4987793,0.000523554,353.0924072,477,840,30.125,-29.375
1160715,KARKLOOFRIVIER,SHAFTON (27662406),ZA,-29.3817,30.2775,341,30,0,0,1954,2014,61,3.53,,,,,2.948,0.05636055,845.0493776,0.084504938,-29.39,30.28,1473.384644,7.18E-05,341.0122375,478,841,30.375,-29.625
1160717,STERKSPRUIT,GROOTHOEK (27662412),ZA,-29.4231,30.4881,435,637,0,0,1960,2014,55,2.36,,,,,1.596,0.034907903,364.9194203,0.036491942,-29.42,30.49,2263.559082,0.031739824,428.0965881,478,841,30.375,-29.625
1160720,MGENI,PETRUS STROOM 27662413),ZA,-29.5125,30.0942,294,1071,1160721,0,1960,2014,55,0.06,1960,2001,42,0,2.399,0.024825009,256.7249249,0.025672492,-29.51,30.095,879.9816895,0.023130041,297.400116,478,840,30.125,-29.625
1160721,MGENI,HOWICK (27662401),ZA,-29.4872,30.2375,950,990,0,0,1948,1993,46,2.2,,,,,5.269,0.023658249,349.5977269,0.034959773,-29.485,30.235,1462.101563,0.001055202,949.4987793,477,840,30.125,-29.375
1160730,KLAAS SMITSRIVIER,WELTEVREDE (27711506),ZA,-31.9228,26.7856,2193,1054,0,0,1964,2015,52,3.15,,,,,0.61,0.016185336,228.6002947,0.022860029,-31.925,26.785,2527.873291,0.00283595,2189.890381,487,827,26.875,-31.875
1160731,KLAAS SMITSRIVIER,DOORNHOEK (27711502),ZA,-31.7442,26.5839,812,1219,1160730,0,1947,1997,51,0.77,,,,,0.45,0.03583593,441.3905406,0.044139054,-31.745,26.58,1001.201599,0.019229682,804.192749,486,826,26.625,-31.625
1160740,MBASHE,BASHEE BRIDGE (27663804),ZA,-31.9203,28.4478,4942,460,0,0,1956,2007,52,55.99,,,,,8.465,0.016631319,246.6568805,0.024665688,-31.92,28.45,5504.699707,0.000562581,4943.390137,487,833,28.375,-31.875
1160750,MOOIRIVIER (TRIB. TUGELA),DOORNKLOOF,ZA,-29.0714,30.2456,1546,1098,1160751,0,1960,2015,56,2.49,1960,2001,42,1.62,8.061,0.013374252,150.290178,0.015029018,-29.07,30.245,1912.951172,0.010064721,1538.219971,476,840,30.125,-29.125
1160751,MOOIRIVIER (TRIB. TUGELA),SCHEEPERSDAAL (27661501),ZA,-29.0331,30.36,1956,857,1160880,0,1931,1976,46,7.13,,,,,9.363,0.022945415,297.7670441,0.029776704,-29.03,30.36,2350.485352,0.009282836,1946.921387,476,841,30.375,-29.125
1160752,MOOIRIVIER (TRIB. TUGELA),THE BEND (27661505),ZA,-29.36,29.8808,267,1444,1160750,0,1972,2015,44,0.09,,,,,3.565,0.037044423,490.75534,0.049075534,-29.355,29.88,339.7404785,0.012982201,265.2668762,476,840,30.125,-29.125
1160755,KLEIN-MOOIRIVIER,DARTINGTON (27661506),ZA,-29.2661,29.8678,191,1388,1160750,0,1972,2014,43,0.71,,,,,2.006,0.027799656,329.2863649,0.032928636,-29.265,29.865,514.9731445,0.017541695,189.3247681,477,839,29.875,-29.375
1160756,HLATIKULURIVIER,BROADMOOR (27661507),ZA,-29.2383,29.7878,111,1517,1160755,0,1972,2015,44,0.47,,,,,1.031,0.024307135,352.3188876,0.035231889,-29.24,29.785,414.3128357,0.002457627,111.1363983,477,839,29.875,-29.375
1160760,MTATA,NORWOOD (27663602),ZA,-31.5842,28.7842,1213,659,0,0,1957,2006,50,5.59,,,,,7.968,0.033680336,419.3361784,0.041933618,-31.58,28.785,1464.760742,0.017173773,1202.584106,486,835,28.875,-31.625
1160765,MOOIRIVIER (TRIB. MTATA),MACLEAR (27663509),ZA,-31.0717,28.3533,307,1253,1160760,0,1964,2015,52,0.94,,,,,3.321,0.028113841,403.3433826,0.040334338,-31.07,28.35,881.9744873,0.003672845,307.5637817,484,833,28.375,-31.125
1160770,TINARIVIER,MAHLUNGULU (27663505),ZA,-31.0317,28.8844,2573,819,0,0,1951,2015,65,20.61,,,,,15.113,0.013330271,178.6550916,0.017865509,-31.03,28.885,2748.595215,0.004259794,2567.519775,485,836,29.125,-31.375
1160775,MZIMVUBU,KROMDRAAI (27663508),ZA,-30.5706,29.15,2483,1354,0,0,1962,2015,54,0.9,,,,,7.605,0.005979144,58.33234833,0.005833235,-30.57,29.15,2720.379883,0.006270963,2475.2146,482,836,29.125,-30.625
1160780,MTAFUFU,NTAFUFU LOC. 35 (27663301),ZA,-31.4958,29.5286,108,177,0,0,1969,2015,47,15.1,,,,,0.687,0.029254809,408.1731609,0.040817316,-31.495,29.525,19768.26563,0.006129795,107.6689911,485,838,29.625,-31.375
1160785,MZINTLAVA,SLANG FONTEIN (27663504),ZA,-30.5683,29.4222,1034,1254,0,0,1947,2015,69,3.03,,,,,2.982,0.035878371,402.9431404,0.040294314,-30.565,29.42,1365.229492,0.027046485,1020.016968,482,837,29.375,-30.625
1160788,MGENI,INANDA MISSION RES,ZA,-29.7151,30.8692,4084,-999,0,0,1989,2014,26,0.47,,,,,7.339,0.006793763,89.56670608,0.008956671,-29.715,30.87,4252.003906,0.002467948,4078.960449,478,843,30.875,-29.625
1160790,UMVOTI,MISTLEY (27662202),ZA,-29.1617,30.6297,316,958,0,0,1949,2012,64,1.51,,,,,0.944,0.015944433,166.2285208,0.016622852,-29.16,30.63,792.4746094,0.014587595,318.3048401,476,842,30.625,-29.125
1160793,HLIMBITWA,BOSCHFONTEIN (27662203),ZA,-29.0089,30.7886,51,1118,0,0,1949,1992,44,3.62,,,,,0.669,0.098046331,940.7527577,0.094075276,-29,30.785,224.957901,0.105988443,48.29729462,477,845,31.375,-29.375
1160795,TONGATI,RIET KUIL (27662301),ZA,-29.5336,31.0892,243,75,0,0,1966,2015,50,31.2,,,,,0.897,0.011583703,160.4458685,0.016044587,-29.535,31.09,405.6950684,0.002661937,243.3234253,-1,-1,0,0
1160798,MDLOTI,ROODEKRANS (27662302),ZA,-29.6031,31.0164,358,97,0,0,1950,1977,28,7.5,,,,,1.81,0.023195857,334.3012642,0.033430126,-29.6,31.015,470.4096985,0.002727317,357.5118103,478,844,31.125,-29.625
1160800,SLANGRIVIER,VLAKDRIFT (27661405),ZA,-27.4358,29.9758,683,1609,1160851,0,1947,1993,47,3.27,1947,1993,47,0.73,3.036,0.047627242,566.3362635,0.056633626,-27.43,29.975,995.418457,0.029614473,672.8866577,469,839,29.875,-27.375
1160810,WASBANKRIVIER,KUIKVLEI (27661303),ZA,-28.3097,30.1478,312,1040,1160880,0,1954,2014,61,1.86,,,,,1.148,0.023986619,246.5996163,0.024659962,-28.31,30.15,519.9515991,0.022639934,308.4681702,473,840,30.125,-28.375
1160815,SUNDAYS RIVER,KLEINFONTEIN (27661304),ZA,-28.4047,30.0128,658,1078,1160880,0,1954,2014,61,3.1,,,,,3.075,0.021236079,313.033182,0.031303318,-28.405,30.01,781.0597534,0.001101601,657.6375732,475,841,30.375,-28.875
1160820,NCANDU,RUST (27661407),ZA,-27.8497,29.8406,129,1328,1160850,0,1948,2015,68,1.94,,,,,1.137,0.112018679,458.7218867,0.045872189,-27.845,29.84,312.240509,0.244311661,144.7581024,470,840,30.125,-27.625
1160825,HORN RIVER,BALLENGEICH (27661409),ZA,-27.8967,29.9531,150,1196,1160850,0,1958,2015,58,0.93,,,,,0.61,0.018566349,267.6187667,0.026761877,-27.895,29.955,1316.970337,0.002175293,150.163147,471,839,29.875,-27.875
1160830,NGAGANE,BALLENGEICH (27661403),ZA,-27.9231,29.9492,857,1245,1160850,0,1929,1961,33,0.78,,,,,3.625,0.05595874,671.1569495,0.067115695,-27.925,29.955,1298.97168,0.033644829,842.5831909,471,839,29.875,-27.875
1160840,KLEIN-BOESMANSRIVIER,LOCH SLOY (27661618),ZA,-29.0667,29.7481,119,1260,1160750,0,1972,2000,29,3.09,,,,,0.572,0.03216286,382.209321,0.038220932,-29.065,29.745,743.1755981,0.020046715,117.8072205,476,839,29.875,-29.125
1160850,BUFFELSRIVIER,TAYSIDE,ZA,-28.0592,30.3733,5887,1136,1160880,0,1960,2014,55,8.17,1960,2001,42,7.3,16.558,0.034318144,445.5543315,0.044555433,-28.055,30.375,6693.412109,0.013843565,5927.748535,472,841,30.375,-28.125
1160851,BUFFELSRIVIER,SCHURVEPOORT (27661402),ZA,-27.6025,29.9425,1533,1218,1160850,0,1929,2014,86,1.69,,,,,3.728,0.028796711,368.2439749,0.036824397,-27.6,29.945,1808.297729,0.012741338,1523.233765,470,839,29.875,-27.625
1160880,TUGELA,MANDINI (27661102),ZA,-29.1403,31.3925,28920,38,0,0,1956,2014,59,5.86,1959,2001,43,16.83,76.185,0.019311507,279.755021,0.027975502,-29.14,31.39,28996.91797,0.001983516,28891.31836,476,845,31.375,-29.125
1160881,TUGELA,TUGELA DRIFT (27661701),ZA,-28.7358,29.8208,4154,960,1160880,0,1924,2014,91,11.82,,,,,21.301,0.015982705,117.9006482,0.011790065,-28.735,29.82,4355.311523,0.024367984,4204.612305,474,839,29.875,-28.625
1160882,TUGELA,KLEINE WATERVAL (27661726),ZA,-28.7217,29.3756,1869,1117,1160881,0,1967,2014,48,0.7,,,,,18.319,0.028928349,177.9237265,0.017792373,-28.72,29.375,2406.494385,0.0512003,1916.84668,474,837,29.375,-28.625
1160884,TUGELA,BERGVILLE (27661702),ZA,-28.7378,29.3522,1666,851,1160882,0,1931,1970,40,1.76,,,,,10.633,0.040390744,324.8766948,0.032487669,-28.74,29.35,1975.008301,0.056196894,1712.812012,475,837,29.375,-28.875
1160885,LITTLE TUGELA,WINTERTON (27661710),ZA,-28.8181,29.545,779,1018,1160881,0,1964,2014,51,0.4,,,,,8.457,0.017130922,184.0044833,0.018400448,-28.82,29.545,1167.087646,0.014591868,784.6835327,474,838,29.625,-28.625
1160890,SANDSPRUIT (KWAZULU-NATAL),KLEINE WATERVAL (27661731),ZA,-28.7239,29.3514,161,1120,1160881,0,1970,2005,36,2.34,,,,,0.421,0.02060947,188.8923754,0.018889238,-28.725,29.35,1978.796997,0.024049936,162.9360199,474,837,29.375,-28.625
1160891,GELUKSBURGSPRUIT,SCHOON SPRUIT (27661729),ZA,-28.5081,29.3481,21,1197,1160881,0,1968,1993,26,8.88,,,,,0.146,0.029105508,367.7155203,0.036771552,-28.505,29.35,266.6230469,0.013773419,21.1446209,474,837,29.375,-28.625
1160892,BLOUKRANSRIVIER,FRERE (27661709),ZA,-28.8922,29.7703,196,1040,1160881,0,1954,2014,61,3.1,,,,,0.636,0.017411072,215.1888565,0.021518886,-28.89,29.77,323.0696411,0.009195444,195.0988464,474,840,30.125,-28.625
1160893,KHOMBE,GROOT GELUK (27661734),ZA,-28.6731,29.0856,52,1220,1160884,0,1974,1993,20,23.51,,,,,0.717,0.02839476,308.8813628,0.030888136,-28.67,29.085,623.7980957,0.023408009,51.39139175,475,836,29.125,-28.875
1160894,MLAMBONJA,KLEINERIVIER (27661741),ZA,-28.8125,29.3106,434,1139,1160895,0,1976,2014,39,0.79,,,,,7.027,0.017106936,251.6952084,0.025169521,-28.815,29.31,1744.714478,0.000981766,434.2130432,475,837,29.375,-28.875
1160895,MLAMBONJA,THE DELTA (27661704),ZA,-28.7961,29.3028,441,1128,1160884,0,1962,1975,14,8.63,,,,,6.185,0.023890817,267.1700505,0.026717005,-28.795,29.305,1749.041626,0.01823844,445.0215759,475,837,29.375,-28.875
1160900,WIT-MFOLOZI,DOORNHOEK (27650209),ZA,-27.8975,30.8836,440,1009,0,0,1971,2015,45,1.52,,,,,1.373,0.019179079,285.187204,0.02851872,-27.9,30.885,853.2199707,0.000499795,440.1099548,471,843,30.875,-27.875
1160910,SWART-MFOLOZI,UMFOLOZI GAME RES. (27650202),ZA,-28.3092,31.9022,3484,59,0,0,1947,1963,17,19.06,,,,,7.787,0.021930006,320.7324139,0.032073241,-28.31,31.905,8844.90332,0.001643535,3481.136963,473,847,31.875,-28.375
1160911,SWART-MFOLOZI,NATIVE RES. 12 (27650206),ZA,-28.0694,31.5494,1659,236,1160910,0,1963,2015,53,11.45,,,,,5.5,0.010240141,87.75478957,0.008775479,-28.07,31.55,2257.732666,0.013169467,1669.924072,472,846,31.625,-28.125
1160920,MPATERIVIER,MPATE FOREST RES. (27650114),ZA,-28.3314,32.3611,47,17,0,0,1969,2015,47,1.53,,,,,0.116,0.057583047,179.7899358,0.017978994,-28.33,32.36,9705.118164,0.136791155,50.21459198,472,849,32.375,-28.125
1160930,MKUZE,MORRISVALE (27650111),ZA,-27.6603,32.4225,5068,20,0,0,1970,1990,21,13.95,,,,,4.118,0.020662913,279.7228596,0.027972286,-27.66,32.42,5317.80127,0.006044167,5083.315918,470,849,32.375,-27.625
1160950,BUFFELJAGSRIVIER,SUURBRAAK (27694303),ZA,-34.0028,20.6561,440,107,0,0,1949,1992,44,25.15,,,,,1.721,0.052955297,316.3208349,0.031632083,-34,20.655,571.7993774,0.095601723,461.0323792,495,802,20.625,-33.875
1160955,HUISRIVIER (TRIB. BUFFELJAGSRIVIER),BARRYDALE (27694304),ZA,-33.9106,20.7131,10,355,1160950,0,1949,2014,66,1.03,,,,,0.298,0.391940092,1514.222851,0.151422285,-33.925,20.715,440.5551453,0.872975707,5.635121346,495,802,20.625,-33.875
1160957,GROOTKLOOF,SPARKENBOSCH (27694307),ZA,-34.0203,20.5356,25,90,0,0,1951,2014,64,9.31,,,,,0.376,0.195947184,2360.705125,0.236070513,-34,20.545,10726.24707,0.115700528,23.55374336,496,802,20.625,-34.125
1160960,KAFFERKUILSRIVIER,FARM 216 (27694105),ZA,-34.0925,21.2942,229,93,0,0,1969,2014,46,3.22,,,,,1.503,0.018978493,274.1648272,0.027416483,-34.09,21.295,738.8795166,0.002102514,228.7592621,496,805,21.375,-34.125
1160965,KRUISRIVIER,KRUIS RIVER (27694104),ZA,-34.015,21.2892,50,211,0,0,1969,2011,43,0.77,,,,,0.445,0.037509184,526.204354,0.052620435,-34.01,21.29,271.2051392,0.007286682,50.18216705,496,805,21.375,-34.125
1160970,MLALAZI,ESHOWE (27650304),ZA,-28.8728,31.4572,20,481,0,0,1948,2014,67,2.29,,,,,0.099,0.045699911,409.6903364,0.040969034,-28.87,31.46,81.57563019,0.055161666,19.44838333,475,847,31.875,-28.875
1160971,MATIGULU,NATIVE RESERVE 21 (27650310),ZA,-29.0103,31.4592,448,94,0,0,1965,1992,28,13.15,,,,,1.619,0.052782483,468.408949,0.046840895,-29.01,31.455,577.2345581,0.06466566,433.5148926,476,846,31.625,-29.125
1160974,TRIB. TO MLALAZI,ESHOWE (27650325),ZA,-28.8728,31.4572,20,480,0,0,1959,1990,32,1.46,,,,,0.011,0.045699911,409.6903364,0.040969034,-28.87,31.46,81.57563019,0.055161666,19.44838333,475,847,31.875,-28.875
1160975,MHLATUZE,RIVERVIEW (27650309),ZA,-28.7481,31.7456,2428,54,0,0,1960,2014,55,14.11,,,,,4.037,0.017251332,191.8655952,0.01918656,-28.75,31.745,2478.80957,0.013380877,2411.755615,475,846,31.625,-28.875
1196100,ELEFANTES / OLIFANTSRIVIER,FINALE (27521009),ZA,-24.3311,30.7414,42714,437,1896510,0,1960,2015,56,26.56,,,,,24.084,0.016459592,188.0559615,0.018805596,-24.33,30.74,42538.53516,0.011767585,42462.67969,457,843,30.875,-24.375
1196101,ELEFANTES / OLIFANTSRIVIER,ZEEKOEGAT (27526002),ZA,-24.2681,29.8011,31627,725,1196100,0,1948,1980,33,3.9,,,,,39.174,0.02591619,323.5246441,0.032352464,-24.265,29.8,32411.70703,0.013043641,31420.73438,457,839,29.875,-24.375
1196102,ELEFANTES / OLIFANTSRIVIER,LOSKOP NOORD (27527001),ZA,-24.9264,29.3894,16622,832,1196101,0,1938,2011,74,5.45,,,,,4.961,0.037642654,508.2809541,0.050828095,-24.925,29.385,23068.38281,0.011271771,16528.32031,459,837,29.375,-24.875
1196103,ELEFANTES / OLIFANTSRIVIER,MOOIFONTEIN (27529001),ZA,-25.8092,29.3194,3957,1420,1196102,0,1904,1951,48,1.99,,,,,4.612,0.04492492,637.2570183,0.063725702,-25.805,29.315,4052.728027,0.007323355,3942.510742,463,837,29.375,-25.875
1196110,HARTBEESLOOP,ELANDSPRUIT (27529002),ZA,-25.8189,29.3375,247,1434,1196103,0,1956,2015,60,3.87,,,,,0.307,0.022285949,298.0684568,0.029806846,-25.82,29.34,4046.61792,0.007244156,247.8946533,463,837,29.375,-25.875
1196120,BRONKHORSTSPRUIT,ROODEPOORT (27528001),ZA,-25.7925,28.755,1599,1379,1196101,0,1904,1951,48,2.02,,,,,1.197,0.023610894,243.9802581,0.024398026,-25.795,28.755,1733.224121,0.022036631,1581.381714,463,835,28.875,-25.875
1196130,EDENVALSPRUIT (TRIB. LIMPOPO),LEEUWFONTEIN (27547029),ZA,-25.6469,28.3903,126,1220,1196101,0,1962,2015,54,1.5,,,,,0.125,0.032629821,305.4178391,0.030541784,-25.65,28.39,834.163147,0.036805894,128.3187714,462,833,28.375,-25.625
1196140,SELATI,MASUNGA RIVER (27521008),ZA,-24.0092,30.6722,841,491,1196100,0,1956,1998,43,6.84,,,,,1.321,0.038553318,470.8416075,0.047084161,-24.005,30.67,928.2775879,0.021491632,831.9627686,456,842,30.625,-24.125
1196141,SELATI,CALAIS (27521003),ZA,-24.1226,30.3584,85,667,1196140,0,1948,1972,25,33.62,,,,,0.162,0.027572833,306.7486512,0.030674865,-24.12,30.36,216.6883698,0.021368768,84.09182739,456,841,30.375,-24.125
1196142,SELATI,CALAIS (27521014),ZA,-24.1239,30.3553,84,678,1196141,0,1973,2014,42,3.43,,,,,0.254,0.026578246,376.1143006,0.03761143,-24.12,30.355,216.6883698,0.004511879,83.8105011,456,841,30.375,-24.125
1196150,NGWABITSI,HARMONY (27521010),ZA,-24.035,30.4333,323,560,1196140,0,1960,2014,55,8.86,,,,,0.773,0.036405611,515.8698665,0.051586987,-24.04,30.435,610.1398926,0.006042859,323.9759216,456,841,30.375,-24.125
1196160,KLASERIERIVIER,FLEUR DE LYS (27521004),ZA,-24.5561,31.0322,136,568,1896550,0,1950,2014,65,10.05,,,,,0.904,0.022178122,266.4341005,0.02664341,-24.555,31.03,183.3309479,0.013247546,135.0991669,457,844,31.125,-24.375
1196170,DWARSRIVIER,DWARS RIVER (27525009),ZA,-24.9119,30.1031,445,894,1196101,0,1966,2014,49,5.38,,,,,0.66,0.030013422,390.602209,0.039060221,-24.91,30.1,3721.327881,0.011919823,442.3478394,458,840,30.125,-24.625
1196180,WATERVALRIVIER (TRIB. LIMPOPO),MODDERSPRUIT (27525005),ZA,-25.0358,30.2192,189,1478,1196170,0,1960,2014,55,0.05,,,,,0.726,0.035232015,473.8327624,0.047383276,-25.035,30.215,286.4385071,0.010929491,190.0328369,459,840,30.125,-24.875
1196190,TREURRIVIER,WILLEMSOORD (27524003),ZA,-24.6869,30.8136,94,1153,1196700,0,1959,2015,57,0.59,,,,,1.487,0.052716523,439.9986204,0.043999862,-24.685,30.81,753.8262939,0.070149846,90.70295715,458,843,30.875,-24.625
1196200,TSENDE,MOOIPLAAS - KRUGER NAT. PARK (27523011),ZA,-23.5267,31.4033,441,318,1896500,0,1960,2014,55,2.56,,,,,0.076,0.114420541,809.0620201,0.080906202,-23.53,31.41,570.2543945,0.18144922,400.990448,454,846,31.625,-23.625
1196210,SHISHA,VLAKTEPLAAS/KRUGER NAT. PARK (27522001),ZA,-22.8378,31.2372,696,354,1896500,0,1960,2014,55,2.8,,,,,0.338,0.028354878,361.9465837,0.036194658,-22.835,31.235,789.8399658,0.012675318,691.5889893,451,845,31.375,-22.875
1196300,MATLABAS,HAARLEM EAST (27546004),ZA,-24.1594,27.4792,1054,952,1196400,0,1962,2014,53,0.78,1962,2001,40,32.4,1.061,0.01164047,106.9680549,0.010696805,-24.16,27.48,1355.799438,0.013527799,1046.87085,456,828,27.125,-24.125
1196310,MUTSHINDUDIRIVIER,CHIBASE (27541002),ZA,-22.9078,30.5281,104,542,1896502,0,1931,2000,70,7.26,,,,,1.055,0.029958266,437.2359156,0.043723592,-22.905,30.525,1407.718872,0.002427615,103.873764,451,842,30.625,-22.875
1196320,MUTALERIVIER,TENGWE (27541004),ZA,-22.7708,30.5389,326,580,1896502,0,1932,2004,73,0.99,,,,,3.578,0.037725992,440.8698474,0.044086985,-22.77,30.535,405.3877258,0.025004007,330.0756531,450,842,30.625,-22.625
1196330,LUVUVHURIVIER,WELTEVREDEN (27541001),ZA,-23.1122,30.3894,918,578,1896502,0,1912,2006,95,1.03,,,,,2.05,0.017498916,221.5615894,0.022156159,-23.11,30.39,1037.260376,0.008184429,914.2433472,452,842,30.625,-23.125
1196350,MAGALIES,SCHEERPOORT,ZA,-25.7769,27.7611,1171,1179,1196400,0,1922,2013,92,0.15,1922,2001,80,0.95,0.991,0.076262389,223.6612085,0.022366121,-25.775,27.76,1126.540527,0.184054926,1063.23584,462,830,27.625,-25.625
1196360,MOKOLORIVIER,ZANDRIVIER (27546002),ZA,-24.2828,28.0897,1801,1142,1196400,0,1948,2015,68,2.21,,,,,1.467,0.019773891,218.6216351,0.021862164,-24.285,28.09,2495.332275,0.015597346,1786.95459,457,832,28.125,-24.375
1196370,STERKSTROOM,DOORNSPRUIT (27546008),ZA,-24.2164,27.9731,499,1044,1196400,0,1964,2014,51,0.64,,,,,1.182,0.022455839,252.347924,0.025234792,-24.215,27.975,3368.685791,0.016897932,494.7839661,456,831,27.875,-24.125
1196380,TAMBOTIERIVIER,BLAKENEY (27546007),ZA,-23.7636,27.9081,399,867,1196400,0,1962,2014,53,11.71,,,,,0.266,0.031641835,412.492521,0.041249252,-23.76,27.91,632.6795044,0.012427002,396.520813,454,830,27.625,-23.625
1196400,LIMPOPO,BOTSWANA OXENHAM RANCH,ZA,-22.9508,27.9736,98160,770,1196550,0,1959,2002,44,1.43,1959,2001,43,52.18,16.213,0.045437596,408.3954415,0.040839544,-22.95,27.97,101315.3672,0.054633699,100841.4219,451,831,27.875,-22.875
1196410,KROKODILRIVIER (TRIB. LIMPOPO),ZWARTKOP (27547050),ZA,-25.9914,27.8419,149,1357,1196400,0,1973,2015,43,0.84,,,,,0.499,0.021809322,252.4403847,0.025244038,-25.99,27.84,623.2631226,0.01493989,147.8869781,463,831,27.875,-25.875
1196415,STERKSTROOM,GROOTFONTEIN (27547053),ZA,-25.8092,27.4758,88,1276,1196350,0,1973,2015,43,4.55,,,,,0.355,0.034857435,424.2593998,0.04242594,-25.805,27.475,142.9288788,0.019720424,87.13230133,461,830,27.625,-25.375
1196420,WATERKLOOF,RIETVALLEI (27547039),ZA,-25.72,27.1856,4,1480,1196400,0,1971,2015,45,1.07,,,,,0.032,0.107398219,499.5970044,0.0499597,-25.715,27.185,324.4749756,0.222275257,4.444550514,462,829,27.375,-25.625
1196425,SELONSRIVIER,MOEDWIL (27547032),ZA,-25.6372,27.0269,517,1119,1196400,0,1963,2014,52,2.54,,,,,0.176,0.030687512,303.8566643,0.030385666,-25.635,27.025,1076.710327,0.031291202,508.9112244,462,828,27.125,-25.625
1196430,KLEIN-MARICORIVIER,LITTLE-MARICOPOOERT (27548001),ZA,-25.5381,26.1036,1180,1171,1196400,0,1906,1939,34,0.5,,,,,0.182,0.042748528,245.6880268,0.024568803,-25.54,26.105,1343.163452,0.079107977,1133.326294,461,824,26.125,-25.375
1196435,MALMANIELOOP,NAAUWPOORT (27548018),ZA,-25.8142,26.0491,138,1460,1196400,0,1970,1992,23,2.33,,,,,0.125,0.138917219,128.214529,0.012821453,-25.815,26.05,209.993988,0.391108751,111.0134964,462,823,25.875,-25.625
1196500,SANDRIVIER (TRIB. LIMPOPO),ZAMENKOMST (27543003),ZA,-23.0674,29.5789,6731,831,1896502,0,1947,1995,49,8.41,1947,1995,49,7.44,0.476,0.057891637,837.7015517,0.083770155,-23.06,29.575,7537.241211,0.0061346,6710.354004,452,838,29.625,-23.125
1196550,LIMPOPO,BEITBRUG U/S,ZA,-22.2244,29.9869,201000,423,1196551,0,1955,1992,38,13.72,1955,1987,33,35.9,52.778,0.020672824,219.2761173,0.021927612,-22.225,29.985,203056.1406,0.018163247,202825.4063,448,840,30.125,-22.125
1196551,LIMPOPO,BEIBRUG D/S,ZA,-22.2261,29.9903,201001,428,1896502,0,1992,2014,23,4.49,1992,2001,10,45.28,41.682,0.013487388,111.1903198,0.011119032,-22.225,29.99,203082.9375,0.018224102,202832.5313,448,840,30.125,-22.125
1196560,BAD SE LOOP,VISCHGAT (27544010),ZA,-24.5786,28.6394,70,1153,1196550,0,1964,2014,51,1.38,,,,,0.08,0.047345085,603.0105386,0.060301054,-24.575,28.635,1243.164429,0.021433149,69.24983978,458,835,28.875,-24.625
1196561,OLIFANTSPRUIT,OLIFANTSPOORT (27544012),ZA,-24.6653,28.475,120,1174,1196550,0,1966,2015,50,0.66,,,,,0.231,0.005300471,29.3558711,0.002935587,-24.665,28.475,683.9699097,0.010030238,119.3981857,458,834,28.625,-24.625
1196562,RASLOOPRIVIER,SUSSENSVALE (27544018),ZA,-24.7714,28.3481,12,1203,1196550,0,1973,2014,42,1.35,,,,,0.032,0.116140182,371.3492328,0.037134923,-24.77,28.345,145.5558929,0.274150699,10.35509586,458,833,28.375,-24.625
1196563,HESSIE SE WATER,RIETSPRUIT (27544019),ZA,-24.6631,28.4547,17,1200,1196550,0,1973,2014,42,0.67,,,,,0.036,0.129662446,1339.585741,0.133958574,-24.655,28.445,617.5627441,0.121070191,15.9709034,458,834,28.625,-24.625
1196564,MIDDELFONTEINSPRUIT,MIDDELFONTEIN (27544020),ZA,-24.6714,28.5603,43,1138,1196550,0,1973,2015,43,0.82,,,,,0.098,0.064124943,860.0439005,0.08600439,-24.665,28.555,758.4631958,0.020366048,43.43787003,458,834,28.625,-24.625
1196565,DE WETSPRUIT,GROENVALEY (27544021),ZA,-24.6333,28.5964,16,1176,1196550,0,1973,2014,42,1.14,,,,,0.046,0.081205005,358.2220436,0.035822204,-24.63,28.595,835.5095825,0.171970606,17.37576485,458,834,28.625,-24.625
1196566,HARTEBEESTLAAGTESPRUIT,HARTEBEESTLAAGTE (27544022),ZA,-24.602,28.6075,2,1196,1196550,0,1973,1997,25,2.92,,,,,0.006,0.035345716,340.0814996,0.03400815,-24.6,28.605,832.147583,0.038020849,1.961979151,458,834,28.625,-24.625
1196570,LEPHALALA,MUISVOGELKRAAL (27545004),ZA,-23.9817,28.3994,638,1163,1196400,0,1955,2014,60,1.12,,,,,2.276,0.015171458,179.3674863,0.017936749,-23.98,28.4,1109.423218,0.009640876,634.9245605,454,833,28.375,-23.625
1196600,OLIFANTS,WOLWEKRANS,ZA,-26.0064,29.2539,3256,1517,1196103,0,1972,2014,43,2.25,1972,2001,30,0.29,4.834,0.041546111,370.4603704,0.037046037,-26.01,29.255,3524.015625,0.050546259,3173.710693,464,837,29.375,-26.125
1196700,BLYDE,WILLEMSOORD (27524001),ZA,-24.68,30.8019,514,832,1196100,0,1909,2015,107,31.57,1911,2001,91,35.69,5.38,0.014189765,211.5070243,0.021150702,-24.68,30.8,758.0305176,0.00026789,514.0688477,458,843,30.875,-24.625
1197001,INCOMATI,TONGA (27613103),ZA,-25.6822,31.7817,8864,215,1897501,0,1939,2015,77,2.51,,,,,20.787,0.025527918,281.3426055,0.028134261,-25.68,31.78,10410.7207,0.020315232,8773.962891,462,847,31.875,-25.625
1197100,POPONYANE,VRIESLAND (27613120),ZA,-25.8389,30.6842,48,1079,1197300,0,1973,2015,43,0.54,,,,,0.093,0.036951926,383.8350336,0.038383503,-25.835,30.685,3482.549072,0.034088772,47.18186951,463,842,30.625,-25.875
1197200,NWANEDZI,WENELA DRIFT (27611004),ZA,-24.4494,31.9767,928,159,1897500,0,1960,2014,55,3.49,,,,,0.271,0.077433187,907.5829998,0.0907583,-24.44,31.975,1692.505981,0.05078296,951.5632935,457,847,31.875,-24.375
1197300,INCOMATI,HOOGGENOEG (27613101),ZA,-26.0361,30.9975,5540,746,1597002,0,1909,2015,107,3.12,1909,2001,93,5.89,14.444,0.024048878,297.4346392,0.029743464,-26.035,31,6074.046875,0.012659705,5504.932617,464,844,31.125,-26.125
1197310,MLUMATI,LOMATI (27613114),ZA,-25.6736,31.5753,1122,274,1197001,0,1968,2014,47,8.37,,,,,5.389,0.02355079,343.0501642,0.034305016,-25.67,31.575,1319.641846,0.002042338,1123.145752,462,846,31.625,-25.625
1197500,KROKODILRIVIER (TRIB. INCOMATI),TENBOSCH (27613216),ZA,-25.3636,31.9556,10379,140,1897501,0,1960,2015,56,5.97,,,,,19.854,0.010310946,148.1418523,0.014814185,-25.365,31.955,21665.42383,0.001304467,10385.76953,461,847,31.875,-25.375
1197501,KROKODILRIVIER (TRIB. INCOMATI),KARINO (27613206),ZA,-25.4697,31.0881,5131,519,1197500,0,1929,2014,86,0.14,,,,,16.782,0.038196333,495.4652081,0.049546521,-25.465,31.09,5360.833496,0.015495959,5091.245117,462,844,31.125,-25.625
1197502,KROKODILRIVIER (TRIB. INCOMATI),MONTROSE (27613213),ZA,-25.4486,30.7117,1512,793,1197501,0,1959,2015,57,4.33,,,,,5.526,0.028002507,391.02653,0.039102653,-25.45,30.715,3570.699463,0.005802215,1516.386475,461,842,30.625,-25.375
1197510,MBYAMITIRIVIER,KRUGER NATIONAL PARK (27613218),ZA,-25.2783,31.6225,623,259,1197500,0,1960,1997,38,3.06,,,,,0.259,0.028946176,418.6918664,0.041869187,-25.275,31.62,742.744751,0.003100155,622.0343018,461,847,31.875,-25.375
1197520,WITRIVIER (TRIB. INCOMATI),GOEDE HOOP (27613223),ZA,-25.4622,31.0831,308,537,1197501,0,1962,1992,31,1.76,,,,,0.195,0.026923062,403.8310658,0.040383107,-25.46,31.08,5240.689941,2.97E-06,307.9995422,462,844,31.125,-25.625
1197530,NELSPRUIT,BOSCHRAND (27613205),ZA,-25.4325,30.9656,640,645,1197501,0,1929,2015,87,0.83,,,,,2.835,0.017028345,247.8062744,0.024780627,-25.43,30.965,4697.837402,0.001523781,639.5123901,461,843,30.875,-25.375
1197540,HOUTBOSLOOP,SUDWALASKRAAL (27613214),ZA,-25.3822,30.7014,252,819,1197502,0,1958,2015,58,5.02,,,,,1.716,0.027734723,261.9767115,0.026197671,-25.38,30.7,3423.032471,0.030808827,255.8819122,461,843,30.875,-25.375
1197550,ELANDSRIVIER (TRIB. INCOMATI),LINDENAU (27613215),ZA,-25.4903,30.6983,1557,833,1197501,0,1959,2015,57,3.79,,,,,6.54,0.018029067,191.409395,0.01914094,-25.49,30.7,3432.774902,0.015805323,1544.695557,461,842,30.625,-25.375
1197551,ELANDSRIVIER (TRIB. INCOMATI),GELUK (27613211),ZA,-25.6464,30.2775,398,1499,1197550,0,1956,1999,44,0.87,,,,,1.599,0.021803565,309.1355199,0.030913552,-25.645,30.275,534.0896606,0.003583592,398.7131348,462,841,30.375,-25.625
1197555,DAWSONS SPRUIT,GELUK (27613212),ZA,-25.6583,30.2603,93,1521,1197551,0,1956,2015,60,0.03,,,,,0.304,0.028945735,319.0535369,0.031905354,-25.655,30.26,531.866272,0.023026498,91.92926788,462,841,30.375,-25.625
1197560,SUIDKAAPRIVIER,GLENTHORPE (27613224),ZA,-25.7117,30.835,82,859,1197502,0,1964,2015,52,2.75,,,,,0.571,0.090727329,1284.280104,0.12842801,-25.705,30.825,234.9853668,0.015325965,81.37163544,461,845,31.375,-25.375
1197561,HOUTBOSLOOP,ELANDSDRIFT (27613225),ZA,-25.2892,30.5678,25,1121,1197502,0,1966,1992,27,0.99,,,,,0.348,0.03639348,509.1346198,0.050913462,-25.285,30.565,1249.376343,0.007353516,25.09191895,461,843,30.875,-25.375
1197562,BEESTEKRALSPRUIT,ELANDSDRIFT (27613226),ZA,-25.2875,30.5708,14,1149,1197502,0,1966,1992,27,2.14,,,,,0.162,0.040771271,255.630585,0.025563058,-25.285,30.57,1249.376343,0.071187697,14.4983139,461,843,30.875,-25.375
1197563,BLYSTAANSPRUIT,ELANDSDRIFT (27613227),ZA,-25.2975,30.5956,77,1019,1197502,0,1966,1992,27,2.03,,,,,0.741,0.02360327,248.692067,0.024869207,-25.295,30.595,1362.42981,0.021071397,77.81124878,461,843,30.875,-25.375
1197564,KANTOORBOSSPRUIT,ELANDSDRIFT (27613228),ZA,-25.2956,30.5669,5,1141,1197502,0,1966,1992,27,1.53,,,,,0.038,0.054012085,219.1864397,0.021918644,-25.295,30.565,1329.566162,0.118198968,5.295497417,461,843,30.875,-25.375
1197570,WITRIVIER (TRIB. INCOMATI),THE RANCH (27613202),ZA,-25.3158,31.0553,180,821,1197501,0,1927,1947,21,0.42,,,,,0.984,0.006043032,83.28056567,0.008328057,-25.315,31.055,272.0803223,0.001472982,180.1325684,462,844,31.125,-25.625
1197580,NOORDKAAPRIVIER,BELLEVUE (27613210),ZA,-25.6108,30.8747,128,844,1197501,0,1948,2015,68,3.9,,,,,0.908,0.007733713,83.41267808,0.008341268,-25.61,30.875,231.57341,0.006518602,128.4171906,461,845,31.375,-25.375
1197590,SUIDKAAPRIVIER,BORNMANS DRIFT (27613231),ZA,-25.73,30.9783,265,659,1197500,0,1966,2015,50,2.77,,,,,1.07,0.053080307,367.3543241,0.036735432,-25.73,30.975,750.2362061,0.085770056,276.3645325,461,845,31.375,-25.375
1197591,SUIDKAAPRIVIER,INLOOP (27613230),ZA,-25.7164,30.7875,59,1081,1197590,0,1966,1992,27,3.11,,,,,0.51,0.022276961,308.829348,0.030882935,-25.715,30.785,133.5909424,0.005065013,59.14941788,461,845,31.375,-25.375
1197595,QUEENSRIVIER,SASSENHEIM (27613208),ZA,-25.7858,30.9242,182,730,1197590,0,1948,2015,68,2.08,,,,,0.664,0.021209465,117.3337929,0.011733379,-25.785,30.925,311.1170654,0.040161636,185.6547089,462,843,30.875,-25.625
1197700,SABIE,PERRYS FARM (27612006),ZA,-25.0306,31.1264,762,473,1897550,0,1958,2000,43,1.73,,,,,6.043,0.018690004,166.0044604,0.016600446,-25.03,31.125,1536.811401,0.022869119,770.7131348,460,845,31.375,-25.125
1197701,SABIE,SABIE (27612001),ZA,-25.0889,30.7778,168,987,1197700,0,1948,2015,68,0.71,,,,,1.957,0.06354565,486.0932452,0.048609325,-25.085,30.775,332.4795532,0.0934183,175.8471375,460,843,30.875,-25.125
1197705,KLEIN-SABIERIVIER,SABIE (27612002),ZA,-25.0917,30.7781,54,983,1197701,0,1963,2015,53,0.33,,,,,0.415,0.081627466,1138.799584,0.113879958,-25.08,30.78,332.4795532,0.017122481,54.46230698,460,843,30.875,-25.125
1197710,NOORD-SANDRIVIER,DE RUST (27612004),ZA,-25.0761,31.1303,216,530,1197700,0,1948,2015,68,2.71,,,,,1.015,0.010834156,110.009383,0.011000938,-25.075,31.13,1528.431152,0.01050059,214.8659363,460,845,31.375,-25.125
1197720,WHITE WATERSRIVIER,ETNA (27612007),ZA,-25.1536,31.0022,45,893,1197700,0,1963,1991,29,4.44,,,,,0.318,0.038080122,339.1131002,0.03391131,-25.155,31.005,169.9228516,0.046417747,46.04439926,460,845,31.375,-25.125
1197730,MAC-MAC RIVER,GEELHOUTBOOM (27612003),ZA,-24.9931,30.8142,52,1218,1197700,0,1948,2015,68,0.24,,,,,0.878,0.031245401,202.3043794,0.020230438,-24.995,30.815,343.6507874,0.053275328,53.38515854,460,845,31.375,-25.125
1197740,SANDRIVIER (TRIB. INCOMATI),EXETER (27612008),ZA,-24.7533,31.3883,1077,370,1897550,0,1967,2015,49,14.73,,,,,4.452,0.076782392,1127.815996,0.1127816,-24.765,31.39,1248.792358,0.004783977,1074.423828,459,847,31.875,-24.875
1199100,MPULUZI,BUSBY (27632211),ZA,-26.2797,30.5942,906,1517,1599101,0,1956,2015,60,5.93,1963,2001,39,0.44,1.182,0.030705698,459.0872151,0.045908722,-26.275,30.595,1037.483643,0.000299652,906.1357422,465,842,30.625,-26.375
1199110,JESSIEVALE SPRUIT,JESSIEVALE FOR. RES. (27632201),ZA,-26.2606,30.5497,15,1621,1199100,0,1910,1992,83,9.57,,,,,0.026,0.013764589,66.51204359,0.006651204,-26.26,30.55,989.3620605,0.027991358,15.20993519,465,842,30.625,-26.375
1199200,BIVANE,WELGELEGEN (27632104),ZA,-27.5281,30.8539,953,969,1899100,0,1950,2015,66,6.68,,,,,4.804,0.021960541,320.5602612,0.032056026,-27.525,30.855,1050.854126,0.001769571,952.1567993,470,843,30.875,-27.625
1199300,BRAKSLOOT,PONGOLA (27632108),ZA,-27.3947,31.6425,4,244,1899100,0,1972,1984,13,8.04,,,,,0.021,0.223442504,2936.007213,0.293600721,-27.365,31.635,6553.574707,0.083126068,3.833747864,469,846,31.625,-27.375
1199400,MAPUTO; USUTU,WESTOE (27632207),ZA,-26.5044,30.6281,531,1543,1599102,0,1951,1969,19,7.21,,,,,1.74,0.027152393,349.8438766,0.034984388,-26.505,30.625,728.9324951,0.011488402,527.9498291,466,842,30.625,-26.625
1199410,BONNIE BROOK,BROADHOLMS (27632208),ZA,-26.4833,30.6339,108,1531,1199400,0,1951,2015,65,3.53,,,,,0.245,0.032669974,338.9748799,0.033897488,-26.48,30.635,728.9324951,0.030214945,109.6316071,466,842,30.625,-26.625
1199450,NGWEMPISI,BUSHMANS SPRUIT (27632204),ZA,-26.7503,30.4664,463,1399,1599180,0,1950,1991,42,6.51,,,,,1.139,0.018692721,158.4833081,0.015848331,-26.75,30.465,546.5877075,0.024381502,457.3556824,466,841,30.375,-26.625
1199460,SWARTWATER,ZWARTWATER (27632206),ZA,-27.1144,30.8314,183,1139,1599101,0,1950,2014,65,2.87,,,,,1.078,0.036976511,448.5348758,0.044853488,-27.11,30.83,2203.672852,0.021222558,181.058136,468,843,30.875,-27.125
1201100,MEJERDA,GHARDIMAOU,TN,36.45,8.43,1480,192,1201500,0,,,,,1976,1979,4,0,3.021,0.00567418,0,0,36.45,8.43,1524.292236,0.017022541,1467.40332,214,753,8.375,36.375
1201150,MELLEGUE,K13,TN,36.12,8.5,9000,327,1201500,0,,,,,1976,1979,4,0,4.667,0.037561213,556.5974504,0.055659745,36.12,8.495,9827.90625,0.001364149,8993.861328,215,753,8.375,36.125
1201500,MEJERDA,SLOUGHIA,TN,36.58,9.52,20895,67,0,0,,,,,1976,1979,4,0,18.292,0.086301369,1230.903537,0.123090354,36.59,9.515,20881.82813,0.012723401,20762.07227,212,758,9.625,36.875
1204900,JOUMINE,DJEBEL ANTRA,TN,36.95,9.47,235,130,0,0,,,,,1976,1979,4,0,1.625,0.058262344,781.8051988,0.07818052,36.955,9.465,393.8238831,0.018425994,232.8349457,212,757,9.375,36.875
1216300,PAMPANA,MATOTOKA,SL,8.67,-11.87,2407,9,0,0,,,,,1976,1979,4,23.4,124,0.052977581,778.7737833,0.077877378,8.675,-11.875,4684.8125,0.003177987,2410.824707,326,671,-12.125,8.375
1216350,SELI,BUMBUNA,SL,9.03,-11.9,3990,12,0,0,,,,,1976,1979,4,16.67,124.333,0.421722934,5068.451239,0.506845124,8.995,-11.87,4520.886719,0.251478553,4491.699707,325,672,-11.875,8.625
1216400,SELI,BADALA,SL,9.32,-11.53,2625,19,1216350,0,,,,,1976,1977,2,21.43,0,0.103798349,1090.730835,0.109073084,9.33,-11.53,2697.307129,0.093248881,2502.61084,322,673,-11.625,9.375
1216430,BUNDOYA,PALIMA,SL,8.1,-11.32,361,14,0,0,,,,,1976,1979,4,2.17,29.556,0.053057132,779.5254233,0.077952542,8.105,-11.325,9273.986328,0.003266311,360.4104309,327,674,-11.375,8.125
1216450,SEWA,JAIAMA SAWAFE,SL,8.57,-11.27,6870,25,0,0,,,,,1976,1979,4,19.15,113.78,0.040919829,556.5974504,0.055659745,8.57,-11.265,6998.428711,0.011439996,6830.703613,325,674,-11.375,8.625
1216500,MABOA,DODO,SL,8.15,-11.15,57,27,0,0,,,,,1976,1978,3,3.45,4,0.172066861,2479.837138,0.247983714,8.16,-11.17,272.3540039,0.020233154,57.5766449,327,674,-11.375,8.125
1219500,MOA,MOA BRIDGE,SL,7.82,-11.17,17150,50,0,0,,,,,1976,1977,2,0,0,0.010238019,0,0,7.82,-11.17,17528.32617,0.030714057,17413.37305,329,675,-11.125,7.625
1234050,GAROUOL,DOLBEL,NE,14.62,0.3,7500,-999,1234080,0,1961,1988,28,9.05,1961,1988,28,8.84,8.996,0.191210885,2782.964055,0.278296405,14.6,0.285,8335.202148,0.017039843,7563.899414,301,720,0.125,14.625
1234080,GOROUOL,ALCONGUI,NE,14.75,0.6,44900,227,1234090,0,1961,1988,28,20.67,1957,1989,33,6.67,10.802,0.118396441,0,0,14.75,0.6,53269.82031,0.355189323,52874,301,722,0.625,14.625
1234100,DARGOL,TERA,NE,14.02,0.75,2750,-999,1234100,0,1961,1987,27,20.27,1961,1987,27,20.25,2.852,0.093924461,556.5497682,0.055654977,14.015,0.75,3000.299805,0.170463428,2515.612793,303,723,0.875,14.125
1234120,DARGOL,KAKASSI,NE,13.85,1.47,6940,198,1234150,0,1957,1988,32,14.59,1957,1988,32,14.1,5.249,0.056928933,556.5974504,0.055659745,13.85,1.465,7286.532715,0.059467308,7146.351563,304,725,1.375,13.875
1234130,SIRBA,GARBE-KOUROU,NE,13.7333,1.6167,38750,287,1234150,0,1956,2002,47,23.67,1956,2010,55,54.59,23.327,0.075790946,1054.568829,0.105456883,13.74,1.61,663690.0625,0.016459072,39068.89453,305,726,1.625,13.625
1234150,NIGER,NIAMEY,NE,13.52,2.08,700000,176,1234250,0,1929,2006,78,13.33,1929,2012,84,34.83,891.107,0.033089464,0,0,13.52,2.08,665430.625,0.099268392,665256.0625,305,728,2.125,13.625
1234180,GOROUBI,DIONGORE AMONT,NE,12.96,2.32,15350,-999,1234250,0,1962,1988,27,22.87,1962,1988,27,22.98,5.688,0.345322627,5131.38092,0.513138092,12.95,2.275,701810.25,0.009691698,15424.38379,309,729,2.375,12.625
1234190,DIAMANGOU,TAMOU,NE,12.74,2.24,4030,-999,1234180,0,1962,1981,20,7.36,1962,1981,20,6.93,2.87,0.198907283,2836.011393,0.283601139,12.765,2.245,4304.819336,0.029519569,4089.481934,308,729,2.375,12.875
1234200,TAPOA,CAMPEMENT DU DOUBLE VE,NE,12.47,2.42,5330,215,1234250,0,1963,1988,26,17.67,1963,1988,26,17.39,0.917,0.066335398,556.5974504,0.055659745,12.47,2.415,5654.755371,0.087686703,5563.685059,310,730,2.625,12.375
1234250,NIGER,GAYA,NE,11.88,3.4,1000000,-999,1734500,0,,,,,1952,1990,39,19.61,1104.584,0.183651586,0,0,11.88,3.4,1275674.5,0.550954759,1275477.375,312,733,3.375,11.875
1234500,MAGGIA (TRIB. NIGER),TSERNAOUA,NE,13.88,5.33,2525,275,1234750,0,1976,1987,12,13.97,1976,1987,12,13.97,1.386,0.144480092,1753.27424,0.175327424,13.895,5.325,2576.546875,0.082785428,2420.483398,304,741,5.375,13.875
1234550,KORI DE BADEGUICHERI,BADEGUICHERI,NE,14.5,5.37,824,308,1234500,0,1976,1986,11,51.6,1976,1986,11,51.61,0.637,0.411032675,5565.97454,0.556597454,14.5,5.42,1347.41394,0.119903117,774.5999146,302,741,5.375,14.375
1234650,MARADI,GUINDAM ROUMDJI,NE,13.67,6.77,8800,313,1234750,0,1976,1979,4,0.07,1976,1979,4,0,4.975,0.048425137,552.7165054,0.055271651,13.665,6.77,9065.365234,0.034732111,8647.178711,305,747,6.875,13.625
1234680,MARADI,MADAROUNFA,NE,13.32,7.17,5400,355,1234650,0,1976,1979,4,0.14,1956,1979,24,8.51,5.496,0.102785177,552.2449626,0.055224496,13.325,7.17,6223.210938,0.197906539,4865.652344,306,748,7.125,13.375
1234700,MARADI,NIELLOUA,NE,13.15,7.22,4800,378,1234680,0,1976,1987,12,20.61,1976,1987,12,20.59,6.741,0.14068238,784.035333,0.078403533,13.155,7.215,4311.82373,0.265240073,4163.423828,307,748,7.125,13.125
1237500,KOMADOUGOU YOBE,BAGARA DIFFA,NE,13.28,12.6,115000,298,0,0,1976,1980,5,0.07,1967,1990,24,0,14.557,0.25119709,543.1927832,0.054319278,13.275,12.6,152232.5313,0.644952714,152084.7813,306,770,12.625,13.375
1253100,MALAGARASI,TARAGI ROAD BRIDGE,TZ,-4.03,30.58,8525,-999,0,0,,,,,1971,1979,9,5.56,68.01,0.097979886,1437.557076,0.143755708,-4.045,30.58,8938.396484,0.006428244,8497.599609,376,842,30.625,-4.125
1253200,LUAMFI,MASOLO (55773170),TZ,-7.4667,30.7333,484,-999,0,0,,,,,1978,1988,11,12.12,3.007,0.095359706,249.5443477,0.024954435,-7.465,30.735,1023.621582,0.236170247,541.1531982,389,842,30.625,-7.375
1253210,SAMBA,MASOLO (55773181),TZ,-7.4667,30.7389,526,-999,0,0,1975,1989,15,17.33,,,,,1.352,0.050113368,463.6169075,0.046361691,-7.465,30.735,1023.01123,0.057616722,541.1531982,389,842,30.625,-7.375
1253300,SAMVIA,YUNGA (55132016),TZ,-8.4,31.1333,428,-999,0,0,1974,1980,7,2.49,,,,,1.766,0.371577511,3134.593066,0.313459307,-8.425,31.115,533.3998413,0.48781392,323.6078186,393,843,30.875,-8.375
1253350,KALAMBO,KALAMBO FALLS (55773185),TZ,-8.6,31.1944,3835,-999,0,0,1975,1980,6,0.52,,,,,14.003,0.173379294,954.5800413,0.095458004,-8.59,31.195,4811.902832,0.329221874,3203.717041,394,844,31.125,-8.625
1253400,LUEGELE,LUBALISI (55773150),TZ,-5.8833,30.0167,1259,-999,0,0,1977,1980,4,7.3,,,,,528.875,0.077643488,672.9697665,0.067296977,-5.89,30.015,1407.535034,0.09833651,1320.902832,383,840,30.125,-5.875
1255100,CUNENE / KUNENE,RUACANA (64740001),,-17.4,14.2167,91815,800,1655100,0,1961,2015,55,0.03,,,,,179.349,0.08685974,571.7782929,0.057177829,-17.395,14.215,86067.04688,0.14622356,85102.24219,429,776,14.125,-17.375
1255150,OMUHONGA,OMBUKU (64740002),,-17.2667,13.3167,362,820,0,0,1980,2015,36,11.42,,,,,0.136,2.102160749,1350.607533,0.135060753,-17.27,13.305,1872.496582,6.036360741,1454.581299,429,773,13.375,-17.375
1257100,OKAVANGO / CUBANGO,RUNDU (64932101),,-17.9,19.7667,104058,1060,1257101,0,1945,2015,71,0,,,,,175.875,0.015735612,189.2431235,0.018924312,-17.9,19.765,103698.3516,0.009358212,103571.1016,431,799,19.875,-17.875
1257101,OKAVANGO / CUBANGO,MUKWE (64932102),,-18.0333,21.4333,244572,1100,1357100,0,1949,2014,66,1.39,,,,,312.325,0.067516746,407.4073494,0.040740735,-18.035,21.43,230399.4063,0.121068768,229766.9844,432,805,21.375,-18.125
1257200,OMATAKO,OUSEMA (64932301),,-21.2167,17.1,4971,1358,1257101,0,1961,2004,44,0,,,,,0.872,0.199489156,1244.861183,0.124486118,-21.205,17.1,6688.36084,0.349495232,5839.67041,444,789,17.375,-21.125
1258100,HOANIB RIVER,SESFONTEIN,,-19.1667,13.5667,11000,520,0,0,1976,2014,39,0.9,,,,,0.34,0.033318694,404.1500872,0.040415009,-19.17,13.565,11331.49609,0.019126065,10894.80664,436,774,13.625,-19.125
1258150,ABA-HUAB,ROOIBERG (64735002),,-20.4833,14.5833,1582,740,0,0,1974,2015,42,6.41,,,,,0.134,0.071812008,511.2190746,0.051121907,-20.48,14.58,2057.824707,0.113192208,1671.535034,442,778,14.625,-20.625
1258200,UGAB RIVER,VINGERKLIP (64734002),,-20.4167,15.4667,14290,910,1258201,0,1967,2015,49,2.91,,,,,0.417,0.01870832,262.8293551,0.026282936,-20.415,15.465,14776.90039,0.003559089,14315.42969,441,781,15.375,-20.375
1258201,UGAB RIVER,UGAB SLAB (64734003),,-21.0833,13.8,29139,100,0,0,1977,2015,39,6.32,,,,,0.167,0.015331472,183.7804933,0.018378049,-21.085,13.8,29273.1582,0.009238317,29004.40234,444,775,13.875,-21.125
1258202,UGAB RIVER,PETERSBURG (64734001),,-20.2,16.1333,7729,1140,1258200,0,1961,2015,55,8.85,,,,,0.103,0.022428836,189.2431235,0.018924312,-20.2,16.135,8069.234375,0.029437883,7842.762695,441,784,16.125,-20.375
1258300,OMARURU RIVER,ETEMBA (64733002),,-21.4167,15.6333,3703,1072,0,0,1967,2014,48,3.11,,,,,0.842,0.084926368,1035.443377,0.103544338,-21.41,15.64,4539.61377,0.047690429,3791.298828,445,782,15.625,-21.375
1258301,OMARURU RIVER,OMBURO (64733003),,-21.3,16.35,1339,1325,1258300,0,1974,2015,42,2.9,,,,,0.609,0.87834321,4244.450112,0.424445011,-21.33,16.325,217.5200348,1.786139607,143.1795197,445,785,16.375,-21.375
1258350,KHAN RIVER,AMEIB (64732004),,-21.8333,15.9667,4054,1210,0,0,1967,2015,49,10.09,,,,,0.266,0.639660955,5706.128783,0.570612878,-21.785,15.945,2501.523193,0.777757108,2477.486328,447,783,15.875,-21.875
1258355,DAWIB,DAWIB (64732005),,-21.8667,15.6,560,940,0,0,1978,2009,32,6.62,,,,,0.03,0.2009668,2921.825567,0.292182557,-21.875,15.575,4987.026855,0.018535286,565.1898804,447,782,15.625,-21.875
1258400,SWAKOP,WESTFALENHOF (64732003),,-22.2833,16.4167,8986,1040,0,0,1962,2015,54,20.2,,,,,0.552,0.068883184,906.2663855,0.090626639,-22.275,16.415,9066.935547,0.025396276,8871.894531,449,785,16.375,-22.375
1258500,KUISEB RIVER,GOBABEB,,-23.5,14.9667,11770,360,1258503,0,1977,2013,37,1.36,,,,,0.517,0.097454956,189.2431235,0.018924312,-23.5,14.965,14169.83496,0.254516244,13267.82813,454,779,14.875,-23.625
1258501,KUISEB RIVER,SCHLESIEN WEIR (64731001),,-23.2867,15.8,6567,800,1258500,0,1961,2015,55,4.78,,,,,0.462,0.114235047,1679.692499,0.16796925,-23.285,15.785,7061.82666,0.00676664,6544.781738,453,783,15.875,-23.375
1258502,KUISEB RIVER,US (64731002),,-22.9667,16.4,1918,1280,1258501,0,1976,2013,38,2.31,,,,,0.234,0.043342246,352.4081366,0.035240814,-22.97,16.4,2583.120605,0.059545111,1860.89624,451,785,16.375,-22.875
1258503,KUISEB RIVER,ROOIBANK (64731011),,-23.1833,14.65,14882,120,0,0,1976,2013,38,6.03,,,,,0.144,0.120195074,660.3900065,0.066039001,-23.18,14.655,16620.85938,0.228507221,16582.32227,452,778,14.625,-23.125
1258505,HUIS,KOS WEIR (64731008),,-23.2167,16.1833,20,1220,1258501,0,1978,2013,36,14.9,,,,,0.001,0.023221538,262.3807967,0.02623808,-23.215,16.185,391.9871521,0.017188454,19.82811546,452,784,16.125,-23.125
1258506,KATROS,TWEESPRUIT (64731007),,-22.9333,15.9333,84,1060,1258501,0,1978,2007,30,14.39,,,,,0.004,0.107122054,1305.175445,0.130517544,-22.945,15.93,628.2211914,0.060331073,81.46609497,451,783,15.875,-22.875
1258507,WESTENDE,WESTENDE (64731006),,-22.8833,15.5667,32,1620,1258502,0,1978,2015,38,10.14,,,,,0.002,0.410400192,5561.21827,0.556121827,-22.85,15.605,433.8082275,0.118956923,30.09668922,451,782,15.625,-22.875
1258508,SIMMENAU,WASSERVALLEI (64731004),,-22.8,16.5333,274,1420,1258502,0,1977,2015,39,9.05,,,,,0.043,0.05090122,566.1475387,0.056614754,-22.805,16.535,1485.202637,0.039474152,268.592041,451,786,16.625,-22.875
1258509,BISMARK,STANCO (64731003),,-22.7333,16.6,275,1480,1258502,0,1977,2009,33,0,,,,,0.06,0.030641189,352.043936,0.035204394,-22.73,16.6,1082.220215,0.021514781,277.9582825,451,786,16.625,-22.875
1258510,GAUB RIVER,GREYLINGSHOF,,-23.4667,15.7667,2490,750,1258500,0,1980,2006,27,0,,,,,0.125,0.132745091,1437.363456,0.143736346,-23.48,15.765,2863.165039,0.110762581,2627.899414,453,782,15.625,-23.375
1258520,AREBBUSCH,MONRAVIA (64732002),,-22.5333,17.0667,44,1630,1258502,0,1983,1992,10,1.69,,,,,0.031,0.529481706,7250.559428,0.725055943,-22.6,17.08,447.7493286,0.138333231,40.95666885,450,787,16.875,-22.625
1258530,HEUSIS,HEUSIS (64731005),,-22.6333,16.65,43,1666,1258502,0,1978,2015,38,10.88,,,,,0.006,0.148269933,1422.267952,0.142226795,-22.625,16.64,346.41922,0.160356209,39.55234146,451,786,16.625,-22.875
1259060,KAMRIVIER,DRAAIHOEK (64812002),,-24.2,17.0333,3481,-999,1259104,0,1976,2014,39,2.68,,,,,0.763,0.089516846,916.2345993,0.09162346,-24.195,17.04,3375.540527,0.08530362,3332.529053,456,788,17.125,-24.125
1259070,PACKRIEMRIVIER,KARRIS (64812005),,-24.35,17.5833,1505,1520,1259102,0,1976,2012,37,0.22,,,,,0.863,0.017682275,189.2431235,0.018924312,-24.35,17.585,11148.09082,0.0151982,1516.436646,457,790,17.625,-24.375
1259080,HUDUP,RIETKUIL (64812006),,-25.1167,17.5167,5859,1100,1259102,0,1973,2015,43,1.46,,,,,0.854,0.018145554,261.4992997,0.02614993,-25.115,17.515,9264.147461,0.002136803,5865.259766,462,790,17.625,-25.625
1259090,GAAPRIVIER,HOLOOG (64812015),,-27.45,17.9833,2510,900,1259100,0,1979,2013,35,0.04,,,,,0.057,0.104862284,562.2105498,0.056221055,-27.445,17.985,2345.822754,0.202144742,2256.30835,469,791,17.875,-27.375
1259100,FISH RIVER (NA),AI-AIS (64812014),,-27.9167,17.4833,63940,243.6,0,0,1975,2015,41,0.13,,,,,7.718,0.019372872,261.5210262,0.026152103,-27.915,17.485,64143.07031,0.005814411,63754.11328,471,789,17.375,-27.875
1259101,FISH RIVER (NA),SEEHEIM (64812008),,-26.8167,17.08,46852,700,1259100,0,1961,2015,55,0.21,,,,,10.17,0.947433783,4224.897526,0.422489753,-26.855,17.07,241.554657,1.997321844,62.73749924,467,789,17.375,-26.875
1259102,FISH RIVER (NA),TSES (64812009),,-25.9,17.9833,37950,930,1259101,0,1975,2015,41,0.33,,,,,9.885,0.025501075,367.3543241,0.036735432,-25.9,17.98,38006.17188,0.003032362,37892.46094,463,791,17.875,-25.875
1259103,FISH RIVER (NA),GRAS (64812001),,-24.1833,17.35,9251,1210,1259102,0,1970,1997,28,2.65,,,,,4.413,0.060393898,585.1734927,0.058517349,-24.185,17.355,10676.04883,0.064146996,8954.288086,456,790,17.625,-24.125
1259104,FISH RIVER (NA),DIRICHAS (64812003),,-24.2667,17.0833,2855,1270,1259103,0,1976,2014,39,1.48,,,,,1.606,0.018712647,261.7921104,0.026179211,-24.265,17.085,6282.030762,0.003779519,2860.395264,457,788,17.125,-24.375
1259110,LOEWEN,ALTDORN (64812011),,-26.8,18.2167,7000,800,1259111,0,1975,2014,40,0.05,,,,,1.759,0.023513809,189.2431235,0.018924312,-26.8,18.215,7911.665527,0.032692801,6885.575195,467,792,18.125,-26.875
1259111,LOEWEN,AIKANES (648120210),,-26.8833,18.1,8145,760,1259100,0,1970,1981,12,0,,,,,3.288,0.02696954,179.878565,0.017987857,-26.885,18.1,8469.930664,0.044932906,7962.010742,467,792,18.125,-26.875
1259112,LOEWEN,GEDULD (64812012),,-26.7667,18.4833,3247,850,1259110,0,1976,2014,39,0.05,,,,,0.71,0.04545798,396.481563,0.039648156,-26.77,18.485,6381.013184,0.057077628,3339.665527,466,793,18.375,-26.625
1259150,ORANGE,SEAKA BRIDGE (66819303),LS,-30.3633,27.575,19756,1400,1159651,0,1975,1989,15,18.73,1972,1984,13,0,115.435,0.024296678,325.624946,0.032562495,-30.36,27.575,20818.67773,0.007765046,19679.29688,481,830,27.625,-30.375
1259151,ORANGE,WHITEHALL (66819304),LS,-30.0633,28.5083,10774,-999,1259150,0,1980,1990,11,0,,,,,71.296,0.028857563,374.1908435,0.037419084,-30.06,28.51,10894.70801,0.011734521,10710.78613,480,834,28.625,-30.125
1259152,ORANGE,KOMA-KOMA (66819305),LS,-29.59,28.7133,7952,-999,1259151,0,1980,1990,11,25.03,,,,,38.179,0.028036058,367.3543241,0.036735432,-29.59,28.71,8394.125977,0.01063731,7909.706055,478,834,28.625,-29.625
1259170,TSOELIKE,TSOELIKE BRIDGE (66819307),LS,-30.0167,28.7233,739,-999,1259151,0,1980,1990,11,2.98,,,,,5.808,0.075794179,373.6214216,0.037362142,-30.02,28.725,10452.04883,0.152658254,795.4072266,479,834,28.625,-29.875
1259200,QOMOQOMONG,QUTHING (66819340),LS,-30.4,27.6967,208,1450,1259150,0,1975,1987,13,7.23,1978,1984,7,0,1.09,0.04978735,527.9119178,0.052791192,-30.395,27.695,19711.23242,0.043779667,203.4469147,481,830,27.625,-30.375
1259201,HUDUP,BRECKHORN (64812007),,-24.8333,17.1667,4767,1290,1259080,0,1978,2015,38,0.03,,,,,0.466,0.050980951,737.3164347,0.073731643,-24.84,17.165,4845.77832,0.005479567,4780.060547,459,788,17.125,-24.875
1259220,CALEDON,MOHLOKAQALA (66818039),LS,-29,27.7,5630,1510,1159303,0,1984,1991,8,37.37,1970,1984,15,0.56,17.274,0.052016994,743.4187323,0.074341873,-29.005,27.695,5762.457031,0.007367236,5609.26123,477,830,27.625,-29.375
1259230,TLAMETLU,LOWER QEME (66818044),LS,-29.5267,27.495,144,-999,1159303,0,1976,1988,13,17.57,,,,,5.275,0.040561354,167.8683307,0.016786833,-29.525,27.495,285.8191223,0.088110395,137.6560516,478,829,27.375,-29.625
1259240,MOROEROE,BUTHA-BUTHE (66818046),LS,-28.7517,28.265,26,-999,1259220,0,1975,1987,13,17.13,,,,,0.111,0.074668365,581.0197374,0.058101974,-28.75,28.26,1539.075073,0.107801147,24.59858513,474,832,28.125,-28.625
1259250,SOUTH PHUTHIATSANA,MASIANOKENG (66818024),LS,-29.3983,27.5617,977,1510,1159303,0,1978,1992,15,9.71,1978,1983,6,0,3.977,0.027174334,376.6588747,0.037665887,-29.395,27.56,1112.226685,0.006191226,980.0244141,478,829,27.375,-29.625
1259260,NORTH PHUTHIATSANA,MAPOTENG (66818034),LS,-29.1167,28,360,-999,1159303,0,1980,1992,13,0.17,,,,,2.696,0.046533031,581.1360304,0.058113603,-29.115,28.005,516.4708252,0.023371886,364.2069397,476,832,28.125,-29.125
1259261,KAMRIVIER,KLEIN AUB (64812004),,-23.8167,16.6166,1099,1080,1259060,0,1973,2000,28,0,,,,,0.244,0.185983977,1304.16559,0.130416559,-23.805,16.62,1304.147705,0.297118813,935.7332153,455,786,16.625,-23.875
1259270,TSAUCHAB,SESRIEM (64722401),,-24.5167,15.7667,1476,750,1259104,0,1979,2008,30,0,,,,,0.07,0.26021423,3861.149648,0.386114965,-24.49,15.79,2161.116455,0.008412762,1482.208618,457,782,15.625,-24.375
1259300,MAKHALENG,MOLIMO-NTHUSE (66819219),LS,-29.4333,27.9,83,1945,1259301,0,1980,1992,13,0,1964,1984,21,2.43,1.216,0.108075653,1421.950604,0.14219506,-29.42,27.895,246.3147583,0.039836839,84.65322876,478,830,27.625,-29.625
1259301,MAKHALENG,QABA (66819223),LS,-29.8667,27.5617,1564,-999,1159651,0,1987,1993,7,0,,,,,17.171,0.326313332,4209.807445,0.420980744,-29.895,27.59,1955.344116,0.136978507,1671.117188,480,830,27.625,-30.125
1259310,MALETSUNYANE,SEMONKONG (66819318),LS,-29.8217,28.035,220,-999,1259150,0,1980,1993,14,31.17,,,,,2.888,0.035109051,167.0374463,0.016703745,-29.82,28.035,377.9885254,0.071919665,227.9111633,480,831,27.875,-30.125
1259320,MALIBAMATSO,PARAY (66819308),LS,-29.4833,28.6567,3236,-999,1259152,0,1980,1989,10,2.01,,,,,22.535,0.090220019,1312.983126,0.131298313,-29.485,28.645,7875.374023,0.008063431,3222.953369,478,834,28.625,-29.625
1259321,MALIBAMATSO,OX BOW (66819310),LS,-28.7667,28.62,279,-999,1259320,0,1977,1988,12,10.57,,,,,3.511,0.031627611,322.4694334,0.032246943,-28.77,28.62,361.5065002,0.030388946,274.7607422,475,834,28.625,-28.875
1259350,AUOB RIVER,GOCHAS,,-25.0167,18.8833,19600,1070,1159100,0,1973,2012,40,6.25,,,,,0.192,0.071668011,260.5271685,0.026052717,-25.015,18.885,21236.9043,0.1628986,21196.40625,460,796,19.125,-25.125
1259360,SENQUNYANE,MARAKABEI (66819317),LS,-29.56,28.09,1107,-999,1259150,0,1980,1992,13,0,,,,,29.032,0.425492208,6142.221088,0.614222109,-29.555,28.145,1306.808838,0.048032407,1080.414063,478,832,28.125,-29.625
1259400,KONKIEP RIVER,BETHANIEN (64812013),,-26.4333,17.1167,4140,1030,0,0,1973,2013,41,5.5,,,,,0.253,0.027082324,261.7708377,0.026177084,-26.435,17.115,4518.687012,0.028892804,4080.191895,465,788,17.125,-26.375
1259440,WHITE NOSSOB,AMASIB (64813203),,-23.0833,18.65,9300,1280,1159100,0,1973,2012,40,10.08,,,,,0.021,0.062403306,348.0644434,0.034806444,-23.08,18.65,17905.99414,0.117597029,9846.826172,452,794,18.625,-23.125
